{
"type": "FeatureCollection",
"crs": { "type": "name", "properties": { "name": "urn:ogc:def:crs:OGC:1.3:CRS84" } },
"features": [
{ "type": "Feature", "properties": { "Name": "Joseph Sandoval - Mortgage", "Document No.": 1994102278.0, "Bonding Company": "Pacheco Bonding", "Amount": "$50,000 ", "Signing Date": "1994-08-03T00:00:00", "Date Release Signed": "5/9/19", "Longitude": null, "Latitude": null, "Disposition (from Criminal Dockets)": "Dismissed by Prosecutor" }, "geometry": null },
{ "type": "Feature", "properties": { "Name": "Sandra D. Lethem\nLarry A. Lethem - Mortgage", "Document No.": 1998139014.0, "Bonding Company": "Pacheco Bonding", "Amount": "$200,000 ", "Signing Date": "1998-10-28T00:00:00", "Date Release Signed": "5/6/12", "Longitude": null, "Latitude": null, "Disposition (from Criminal Dockets)": "Dismissed by Prosecutor" }, "geometry": null },
{ "type": "Feature", "properties": { "Name": "Jose Gallegos\nMaria Gallegos - Mortgage", "Document No.": 1998165456.0, "Bonding Company": "Allwest Bail Bonds", "Amount": "$20,000 ", "Signing Date": "1998-12-19T00:00:00", "Date Release Signed": "8/18/08", "Longitude": null, "Latitude": null, "Disposition (from Criminal Dockets)": null }, "geometry": null },
{ "type": "Feature", "properties": { "Name": "Vincent Garcia - Mortgage", "Document No.": 1999061861.0, "Bonding Company": "Pacheco Bonding", "Amount": "$104,000 ", "Signing Date": "1999-04-21T00:00:00", "Date Release Signed": "5/23/07", "Longitude": null, "Latitude": null, "Disposition (from Criminal Dockets)": "Guilty Plea/No Contest" }, "geometry": null },
{ "type": "Feature", "properties": { "Name": "Margaret Alvarez - Mortgage", "Document No.": 2000005689.0, "Bonding Company": "An Exit Bail Bonds", "Amount": "$150,000 ", "Signing Date": "1999-07-26T00:00:00", "Date Release Signed": null, "Longitude": -106.6762229, "Latitude": 35.1085632, "Disposition (from Criminal Dockets)": "Dismissed by Prosecutor" }, "geometry": { "type": "Point", "coordinates": [ -106.6762229, 35.1085632 ] } },
{ "type": "Feature", "properties": { "Name": "Feliberto Batista, Nereida Batista - Mortgage", "Document No.": 2000033976.0, "Bonding Company": "Duran Bail Bonds", "Amount": "$30,000 ", "Signing Date": "1999-08-12T00:00:00", "Date Release Signed": null, "Longitude": -106.5056331, "Latitude": 35.0648639, "Disposition (from Criminal Dockets)": null }, "geometry": { "type": "Point", "coordinates": [ -106.5056331, 35.0648639 ] } },
{ "type": "Feature", "properties": { "Name": "Bennie Nieto, Amilia Nieto - Mortgage", "Document No.": 2000011960.0, "Bonding Company": "Discount Bail Bond", "Amount": "$10,550 ", "Signing Date": "1999-09-01T00:00:00", "Date Release Signed": null, "Longitude": -106.6394691, "Latitude": 35.0613595, "Disposition (from Criminal Dockets)": null }, "geometry": { "type": "Point", "coordinates": [ -106.6394691, 35.0613595 ] } },
{ "type": "Feature", "properties": { "Name": "Mike Sedillo - Mortgage", "Document No.": 2000011959.0, "Bonding Company": "Gonzales Bail Bonds", "Amount": "$21,700 ", "Signing Date": "1999-10-28T00:00:00", "Date Release Signed": null, "Longitude": null, "Latitude": null, "Disposition (from Criminal Dockets)": "Guilty Plea/No Contest" }, "geometry": null },
{ "type": "Feature", "properties": { "Name": "Ronald M. Trujillo - Mortgage", "Document No.": 2000011958.0, "Bonding Company": "Gonzales Bail Bonds", "Amount": "$50,000 ", "Signing Date": "1999-11-19T00:00:00", "Date Release Signed": null, "Longitude": null, "Latitude": null, "Disposition (from Criminal Dockets)": "Dismissed by Prosecutor" }, "geometry": null },
{ "type": "Feature", "properties": { "Name": "Eleazar Guzman - Mortgage", "Document No.": 2000025387.0, "Bonding Company": "Pacheco Bonding", "Amount": "$15,000 ", "Signing Date": "2000-01-14T00:00:00", "Date Release Signed": "7/16/14", "Longitude": -106.8650395, "Latitude": 35.1128064, "Disposition (from Criminal Dockets)": "Deferred" }, "geometry": { "type": "Point", "coordinates": [ -106.8650395, 35.1128064 ] } },
{ "type": "Feature", "properties": { "Name": "Natalia Martinez - Mortgage", "Document No.": 2000047615.0, "Bonding Company": "Pacheco Bonding", "Amount": "$305,500 ", "Signing Date": "2000-04-27T00:00:00", "Date Release Signed": "5/17/02", "Longitude": -106.5529289, "Latitude": 35.0857202, "Disposition (from Criminal Dockets)": "Guilty Plea/No Contest" }, "geometry": { "type": "Point", "coordinates": [ -106.5529289, 35.0857202 ] } },
{ "type": "Feature", "properties": { "Name": "Dickson Smith, Ida Smith - Mortgage", "Document No.": 2000047614.0, "Bonding Company": "Pacheco Bonding", "Amount": "$300,000 ", "Signing Date": "2000-05-02T00:00:00", "Date Release Signed": "5/17/02", "Longitude": -106.5475198, "Latitude": 35.1262964, "Disposition (from Criminal Dockets)": "Guilty Plea/No Contest" }, "geometry": { "type": "Point", "coordinates": [ -106.5475198, 35.1262964 ] } },
{ "type": "Feature", "properties": { "Name": "Pedro Cazares, Beatriz Cazares - Mortgage", "Document No.": 2000049633.0, "Bonding Company": "ABC Bail Bonds", "Amount": "$140,000 ", "Signing Date": "2000-05-08T00:00:00", "Date Release Signed": "6/8/01", "Longitude": -106.7461782, "Latitude": 35.0440776, "Disposition (from Criminal Dockets)": "Guilty Plea/No Contest" }, "geometry": { "type": "Point", "coordinates": [ -106.7461782, 35.0440776 ] } },
{ "type": "Feature", "properties": { "Name": "Lorenzo Corral - Mortgage", "Document No.": 2000049849.0, "Bonding Company": "United Bail Bonds", "Amount": "$23,000 ", "Signing Date": "2000-05-09T00:00:00", "Date Release Signed": null, "Longitude": -106.5557021, "Latitude": 35.0658271, "Disposition (from Criminal Dockets)": "Guilty Plea/No Contest" }, "geometry": { "type": "Point", "coordinates": [ -106.5557021, 35.0658271 ] } },
{ "type": "Feature", "properties": { "Name": "Louise Gonzales - Mortgage", "Document No.": 2000049634.0, "Bonding Company": "ABC Bail Bonds", "Amount": "$11,740 ", "Signing Date": "2000-05-09T00:00:00", "Date Release Signed": null, "Longitude": -106.6294757, "Latitude": 35.1511993, "Disposition (from Criminal Dockets)": null }, "geometry": { "type": "Point", "coordinates": [ -106.6294757, 35.1511993 ] } },
{ "type": "Feature", "properties": { "Name": "Peter J. Trujillo, Cynthia A. Trujillo - Mortgage", "Document No.": 2000053611.0, "Bonding Company": null, "Amount": null, "Signing Date": "2000-05-25T00:00:00", "Date Release Signed": "5/24/00", "Longitude": null, "Latitude": null, "Disposition (from Criminal Dockets)": null }, "geometry": null },
{ "type": "Feature", "properties": { "Name": "David Tully  - Mortgage", "Document No.": 2000059938.0, "Bonding Company": "Pacheco Bonding", "Amount": "$45,000 ", "Signing Date": "2000-06-11T00:00:00", "Date Release Signed": "7/17/01", "Longitude": -106.5634021, "Latitude": 35.0841092, "Disposition (from Criminal Dockets)": null }, "geometry": { "type": "Point", "coordinates": [ -106.5634021, 35.0841092 ] } },
{ "type": "Feature", "properties": { "Name": "Oscar E Escobedo - Mortgage", "Document No.": 2000084807.0, "Bonding Company": "Pacheco Bonding", "Amount": "$3,000 ", "Signing Date": "2000-06-15T00:00:00", "Date Release Signed": "2/8/07", "Longitude": -106.7339914, "Latitude": 35.0808922, "Disposition (from Criminal Dockets)": null }, "geometry": { "type": "Point", "coordinates": [ -106.7339914, 35.0808922 ] } },
{ "type": "Feature", "properties": { "Name": "Petra R. Sanchez aka Petra Peggy Sanchez - Mortgage", "Document No.": 2001029610.0, "Bonding Company": "Pacheco Bonding", "Amount": "$81,500 ", "Signing Date": "2000-08-23T00:00:00", "Date Release Signed": "11/9/01", "Longitude": null, "Latitude": null, "Disposition (from Criminal Dockets)": null }, "geometry": null },
{ "type": "Feature", "properties": { "Name": "Katrina Shope - Mortgage", "Document No.": 2000090685.0, "Bonding Company": "ABC Bail Bonds", "Amount": "$140,000 ", "Signing Date": "2000-09-13T00:00:00", "Date Release Signed": "12/12/02", "Longitude": -106.5019972, "Latitude": 35.1262987, "Disposition (from Criminal Dockets)": "Dismissed by Prosecutor" }, "geometry": { "type": "Point", "coordinates": [ -106.5019972, 35.1262987 ] } },
{ "type": "Feature", "properties": { "Name": "Eugene Coon, Elizabeth Coon - Mortgage", "Document No.": 2000096468.0, "Bonding Company": "ABC Bail Bonds", "Amount": "$7,000 ", "Signing Date": "2000-09-21T00:00:00", "Date Release Signed": "5/31/03", "Longitude": -106.5117775, "Latitude": 35.0929712, "Disposition (from Criminal Dockets)": null }, "geometry": { "type": "Point", "coordinates": [ -106.5117775, 35.0929712 ] } },
{ "type": "Feature", "properties": { "Name": "Darlene Alderete - Mortgage", "Document No.": 2000108355.0, "Bonding Company": "Pacheco Bonding", "Amount": "$100,000 ", "Signing Date": "2000-10-18T00:00:00", "Date Release Signed": "5/8/02", "Longitude": -106.7205845, "Latitude": 35.0760584, "Disposition (from Criminal Dockets)": "Guilty Plea/No Contest" }, "geometry": { "type": "Point", "coordinates": [ -106.7205845, 35.0760584 ] } },
{ "type": "Feature", "properties": { "Name": "Patricia Montoya Allison, Montoya Patricia Allison, Albert E Allison - Mortgage", "Document No.": 2000108354.0, "Bonding Company": "Pacheco Bonding", "Amount": "$100,000 ", "Signing Date": "2000-10-18T00:00:00", "Date Release Signed": "1/19/06", "Longitude": -106.6578453, "Latitude": 35.0801397, "Disposition (from Criminal Dockets)": "Jury Conviction" }, "geometry": { "type": "Point", "coordinates": [ -106.6578453, 35.0801397 ] } },
{ "type": "Feature", "properties": { "Name": "Mark Martinez - Mortgage", "Document No.": 2001030880.0, "Bonding Company": "Gonzales Bail Bonds", "Amount": "$27,500 ", "Signing Date": "2001-01-24T00:00:00", "Date Release Signed": "7/6/06", "Longitude": null, "Latitude": null, "Disposition (from Criminal Dockets)": "Deferred" }, "geometry": null },
{ "type": "Feature", "properties": { "Name": "Louis Frietze Harley - Mortgage", "Document No.": 2001019328.0, "Bonding Company": "Gonzales Bail Bonds", "Amount": "$65,000 ", "Signing Date": "2001-01-24T00:00:00", "Date Release Signed": null, "Longitude": null, "Latitude": null, "Disposition (from Criminal Dockets)": "Deferred" }, "geometry": null },
{ "type": "Feature", "properties": { "Name": "Domingo H Duran - Mortgage", "Document No.": 2001011366.0, "Bonding Company": "Pacheco Bonding", "Amount": "$80,500 ", "Signing Date": "2001-02-02T00:00:00", "Date Release Signed": "8/28/09", "Longitude": -106.700084, "Latitude": 35.0954613, "Disposition (from Criminal Dockets)": "Guilty Plea/No Contest" }, "geometry": { "type": "Point", "coordinates": [ -106.700084, 35.0954613 ] } },
{ "type": "Feature", "properties": { "Name": "Ernest F Avila - Mortgage", "Document No.": 2001034671.0, "Bonding Company": "Jennifer M. Pacheco", "Amount": "$12,127 ", "Signing Date": "2001-02-23T00:00:00", "Date Release Signed": null, "Longitude": -106.704955, "Latitude": 35.089161, "Disposition (from Criminal Dockets)": null }, "geometry": { "type": "Point", "coordinates": [ -106.704955, 35.089161 ] } },
{ "type": "Feature", "properties": { "Name": "Brandy Ramirez Nevins, Jose Varela - Mortgage", "Document No.": 2001043923.0, "Bonding Company": "An Exit Bail Bonds", "Amount": "$40,000 ", "Signing Date": "2001-02-27T00:00:00", "Date Release Signed": "6/27/02", "Longitude": -106.6524106, "Latitude": 35.0764313, "Disposition (from Criminal Dockets)": null }, "geometry": { "type": "Point", "coordinates": [ -106.6524106, 35.0764313 ] } },
{ "type": "Feature", "properties": { "Name": "Kathy Hernandez - Mortgage", "Document No.": 2001031795.0, "Bonding Company": "Gonzales Bail Bonds", "Amount": "$55,000 ", "Signing Date": "2001-03-07T00:00:00", "Date Release Signed": null, "Longitude": null, "Latitude": null, "Disposition (from Criminal Dockets)": null }, "geometry": null },
{ "type": "Feature", "properties": { "Name": "Graciela Pinera - Mortgage", "Document No.": 2002050472.0, "Bonding Company": "Gonzales Bail Bonds", "Amount": "$17,500 ", "Signing Date": "2001-04-24T00:00:00", "Date Release Signed": null, "Longitude": null, "Latitude": null, "Disposition (from Criminal Dockets)": "Dismissed by Prosecutor" }, "geometry": null },
{ "type": "Feature", "properties": { "Name": "Jose Garcia, Patricia Garcia - Mortgage", "Document No.": 2001050299.0, "Bonding Company": "ABC Bail Bonds", "Amount": "$7,000 ", "Signing Date": "2001-04-30T00:00:00", "Date Release Signed": null, "Longitude": -106.6879228, "Latitude": 35.0303279, "Disposition (from Criminal Dockets)": "Guilty Plea/No Contest" }, "geometry": { "type": "Point", "coordinates": [ -106.6879228, 35.0303279 ] } },
{ "type": "Feature", "properties": { "Name": "Cesar Munoz, Anita Munoz - Mortgage", "Document No.": 2001051551.0, "Bonding Company": "ABC Bail Bonds", "Amount": "$100,000 ", "Signing Date": "2001-05-02T00:00:00", "Date Release Signed": "2/28/03", "Longitude": -106.7051053, "Latitude": 35.0738972, "Disposition (from Criminal Dockets)": null }, "geometry": { "type": "Point", "coordinates": [ -106.7051053, 35.0738972 ] } },
{ "type": "Feature", "properties": { "Name": "Manuel Perez, Elizabeth Perez - Mortgage", "Document No.": 2001057722.0, "Bonding Company": "Safety National Casualty Corporation,ABC Bail Bonds", "Amount": "$100,000 ", "Signing Date": "2001-05-18T00:00:00", "Date Release Signed": "7/20/04", "Longitude": null, "Latitude": null, "Disposition (from Criminal Dockets)": "Guilty Plea/No Contest" }, "geometry": null },
{ "type": "Feature", "properties": { "Name": "Marilyn P Murphy - Mortgage", "Document No.": 2002107592.0, "Bonding Company": "ABC Bail Bonds", "Amount": "$52,250 ", "Signing Date": "2001-08-08T00:00:00", "Date Release Signed": null, "Longitude": -106.695155, "Latitude": 34.985007, "Disposition (from Criminal Dockets)": "Dismissed by Prosecutor" }, "geometry": { "type": "Point", "coordinates": [ -106.695155, 34.985007 ] } },
{ "type": "Feature", "properties": { "Name": "Alvero Rodriguez, Maria Rodriguez - Mortgage", "Document No.": 2001108176.0, "Bonding Company": "An Exit Bail Bonds", "Amount": "$15,000 ", "Signing Date": "2001-09-13T00:00:00", "Date Release Signed": null, "Longitude": -106.6409198, "Latitude": 35.1338614, "Disposition (from Criminal Dockets)": null }, "geometry": { "type": "Point", "coordinates": [ -106.6409198, 35.1338614 ] } },
{ "type": "Feature", "properties": { "Name": "Alvero Rodriguez, Maria Rodriguez - Mortgage", "Document No.": 2001108177.0, "Bonding Company": "An Exit Bail Bonds", "Amount": "$15,000 ", "Signing Date": "2001-09-13T00:00:00", "Date Release Signed": null, "Longitude": -106.6409198, "Latitude": 35.1338614, "Disposition (from Criminal Dockets)": null }, "geometry": { "type": "Point", "coordinates": [ -106.6409198, 35.1338614 ] } },
{ "type": "Feature", "properties": { "Name": "Pablo Figueroa, Edwina Figueroa, M E Figueroa - Mortgage", "Document No.": 2001113931.0, "Bonding Company": "Pacheco Bonding,A Bail Bond Co.,Aardvark Bail Bond", "Amount": "$108,500 ", "Signing Date": "2001-09-26T00:00:00", "Date Release Signed": null, "Longitude": -106.3512721, "Latitude": 35.1585532, "Disposition (from Criminal Dockets)": "Dismissed by Prosecutor" }, "geometry": { "type": "Point", "coordinates": [ -106.3512721, 35.1585532 ] } },
{ "type": "Feature", "properties": { "Name": "Juvenal Flores, Olga Flores - Mortgage", "Document No.": 2001133053.0, "Bonding Company": "ABC Bail Bonds", "Amount": "$100,000 ", "Signing Date": "2001-11-08T00:00:00", "Date Release Signed": "7/24/03", "Longitude": -106.6426929, "Latitude": 35.0661331, "Disposition (from Criminal Dockets)": null }, "geometry": { "type": "Point", "coordinates": [ -106.6426929, 35.0661331 ] } },
{ "type": "Feature", "properties": { "Name": "Yamel Bentancourt  - Mortgage", "Document No.": 2001138221.0, "Bonding Company": "Pacheco Bonding,Aardvark Bail Bond", "Amount": "$63,000 ", "Signing Date": "2001-11-20T00:00:00", "Date Release Signed": null, "Longitude": -106.729603, "Latitude": 34.9673543, "Disposition (from Criminal Dockets)": "Transferred to Other Court" }, "geometry": { "type": "Point", "coordinates": [ -106.729603, 34.9673543 ] } },
{ "type": "Feature", "properties": { "Name": "Nestor T. Trujeque - Mortgage", "Document No.": 2002050471.0, "Bonding Company": "Gonzales Bail Bonds", "Amount": "$22,000 ", "Signing Date": "2001-11-27T00:00:00", "Date Release Signed": "3/17/03", "Longitude": null, "Latitude": null, "Disposition (from Criminal Dockets)": "Guilty Plea/No Contest" }, "geometry": null },
{ "type": "Feature", "properties": { "Name": "Luis Ruiz - Mortgage", "Document No.": 2002050466.0, "Bonding Company": "Gonzales Bail Bonds", "Amount": "$27,500 ", "Signing Date": "2001-11-28T00:00:00", "Date Release Signed": null, "Longitude": null, "Latitude": null, "Disposition (from Criminal Dockets)": "Guilty Plea/No Contest" }, "geometry": null },
{ "type": "Feature", "properties": { "Name": "Morales Garcia Raymond - Mortgage", "Document No.": 2002050467.0, "Bonding Company": "Gonzales Bail Bonds", "Amount": "$11,000 ", "Signing Date": "2001-11-28T00:00:00", "Date Release Signed": null, "Longitude": null, "Latitude": null, "Disposition (from Criminal Dockets)": null }, "geometry": null },
{ "type": "Feature", "properties": { "Name": "Xochitl Mera - Mortgage", "Document No.": 2002050468.0, "Bonding Company": "Gonzales Bail Bonds", "Amount": "$27,500 ", "Signing Date": "2001-11-28T00:00:00", "Date Release Signed": null, "Longitude": null, "Latitude": null, "Disposition (from Criminal Dockets)": null }, "geometry": null },
{ "type": "Feature", "properties": { "Name": "Florence V Perez - Mortgage", "Document No.": 2002002610.0, "Bonding Company": "Pacheco Bonding,A Bail Bond Co.,Aardvark Bail Bond", "Amount": "$20,000 ", "Signing Date": "2001-12-23T00:00:00", "Date Release Signed": null, "Longitude": -106.718972, "Latitude": 35.0320961, "Disposition (from Criminal Dockets)": null }, "geometry": { "type": "Point", "coordinates": [ -106.718972, 35.0320961 ] } },
{ "type": "Feature", "properties": { "Name": "Deanna M Herrera - Mortgage", "Document No.": 2002049812.0, "Bonding Company": "Bankers Ins Co,Razo Ed,Bail USA", "Amount": "$60,000 ", "Signing Date": "2001-12-24T00:00:00", "Date Release Signed": null, "Longitude": -106.6328375, "Latitude": 35.0553496, "Disposition (from Criminal Dockets)": null }, "geometry": { "type": "Point", "coordinates": [ -106.6328375, 35.0553496 ] } },
{ "type": "Feature", "properties": { "Name": "Steve M Mascarenas, Flora Mascarenas - Mortgage", "Document No.": 2002002509.0, "Bonding Company": "Affordable Bail Bonds ", "Amount": "$26,950 ", "Signing Date": "2001-12-27T00:00:00", "Date Release Signed": null, "Longitude": -106.728557, "Latitude": 35.010295, "Disposition (from Criminal Dockets)": "Dismissed by Prosecutor" }, "geometry": { "type": "Point", "coordinates": [ -106.728557, 35.010295 ] } },
{ "type": "Feature", "properties": { "Name": "Felix Martinez - Mortgage", "Document No.": 2002009318.0, "Bonding Company": "Quick Bail Bonds", "Amount": "$30,500 ", "Signing Date": "2002-01-15T00:00:00", "Date Release Signed": null, "Longitude": -106.4596134, "Latitude": 35.0623556, "Disposition (from Criminal Dockets)": null }, "geometry": { "type": "Point", "coordinates": [ -106.4596134, 35.0623556 ] } },
{ "type": "Feature", "properties": { "Name": "Francis Gutierrez  - Mortgage", "Document No.": 2006020965.0, "Bonding Company": "Pacheco Bonding,A Bail Bond Co.,Aardvark Bail Bond", "Amount": "$109,000 ", "Signing Date": "2002-01-30T00:00:00", "Date Release Signed": "3/31/09", "Longitude": -106.701234, "Latitude": 35.1043579, "Disposition (from Criminal Dockets)": null }, "geometry": { "type": "Point", "coordinates": [ -106.701234, 35.1043579 ] } },
{ "type": "Feature", "properties": { "Name": "Benito and Ruby C. Martinez - Mortgage", "Document No.": 2002027229.0, "Bonding Company": "Affordable Bail Bonds ", "Amount": "$110,000 ", "Signing Date": "2002-02-22T00:00:00", "Date Release Signed": "9/10/02", "Longitude": -106.7098733, "Latitude": 35.0059639, "Disposition (from Criminal Dockets)": null }, "geometry": { "type": "Point", "coordinates": [ -106.7098733, 35.0059639 ] } },
{ "type": "Feature", "properties": { "Name": "Benito Martinez, Ruby C Martinez - Mortgage", "Document No.": 2002036238.0, "Bonding Company": "Affordable Bail Bonds ", "Amount": "$110,000 ", "Signing Date": "2002-02-22T00:00:00", "Date Release Signed": null, "Longitude": -106.7098733, "Latitude": 35.0059639, "Disposition (from Criminal Dockets)": null }, "geometry": { "type": "Point", "coordinates": [ -106.7098733, 35.0059639 ] } },
{ "type": "Feature", "properties": { "Name": "Bernice Williams - Mortgage", "Document No.": 2002095047.0, "Bonding Company": "Pacheco Bonding,A Bail Bond Co.,Aardvark Bail Bond", "Amount": "$11,000 ", "Signing Date": "2002-03-11T00:00:00", "Date Release Signed": null, "Longitude": -106.6505798, "Latitude": 35.1117671, "Disposition (from Criminal Dockets)": "Guilty Plea/No Contest" }, "geometry": { "type": "Point", "coordinates": [ -106.6505798, 35.1117671 ] } },
{ "type": "Feature", "properties": { "Name": "Jacques Contreras, Grace Contreras - Mortgage", "Document No.": 2002046627.0, "Bonding Company": "Tony Madrid Bail Bonds", "Amount": "$25,000 ", "Signing Date": "2002-04-08T00:00:00", "Date Release Signed": null, "Longitude": -106.2731079, "Latitude": 34.9406626, "Disposition (from Criminal Dockets)": null }, "geometry": { "type": "Point", "coordinates": [ -106.2731079, 34.9406626 ] } },
{ "type": "Feature", "properties": { "Name": "James McAdams - Mortgage", "Document No.": 2002049814.0, "Bonding Company": "Pacheco Bonding,A Bail Bond Co.,Aardvark Bail Bond", "Amount": "$5,000 ", "Signing Date": "2002-04-11T00:00:00", "Date Release Signed": "1/3/08", "Longitude": -106.702225, "Latitude": 34.9497911, "Disposition (from Criminal Dockets)": "Guilty Plea/No Contest" }, "geometry": { "type": "Point", "coordinates": [ -106.702225, 34.9497911 ] } },
{ "type": "Feature", "properties": { "Name": "Eloy Caldwell - Mortgage", "Document No.": 2002049813.0, "Bonding Company": "Pacheco Bonding,A Bail Bond Co.,Aardvark Bail Bond", "Amount": "$3,000 ", "Signing Date": "2002-04-18T00:00:00", "Date Release Signed": "8/6/18", "Longitude": -106.654437, "Latitude": 35.0983002, "Disposition (from Criminal Dockets)": "Dismissed by Prosecutor" }, "geometry": { "type": "Point", "coordinates": [ -106.654437, 35.0983002 ] } },
{ "type": "Feature", "properties": { "Name": "Mary Silva - Mortgage", "Document No.": 2002056223.0, "Bonding Company": "Pacheco Bonding,A Bail Bond Co.,Aardvark Bail Bond", "Amount": "$25,000 ", "Signing Date": "2002-04-19T00:00:00", "Date Release Signed": null, "Longitude": -106.6806909, "Latitude": 35.0817294, "Disposition (from Criminal Dockets)": "Guilty Plea/No Contest" }, "geometry": { "type": "Point", "coordinates": [ -106.6806909, 35.0817294 ] } },
{ "type": "Feature", "properties": { "Name": "William C Renfro, Olga L Renfro - Mortgage", "Document No.": 2002057871.0, "Bonding Company": "Pacheco Bonding,A Bail Bond Co.,Aardvark Bail Bond", "Amount": "$107,000 ", "Signing Date": "2002-05-02T00:00:00", "Date Release Signed": null, "Longitude": -106.7437131, "Latitude": 35.0471228, "Disposition (from Criminal Dockets)": null }, "geometry": { "type": "Point", "coordinates": [ -106.7437131, 35.0471228 ] } },
{ "type": "Feature", "properties": { "Name": "John C Silva - Mortgage", "Document No.": 2002067116.0, "Bonding Company": "Pacheco Bonding,A Bail Bond Co.,Aardvark Bail Bond", "Amount": "$55,198 ", "Signing Date": "2002-05-20T00:00:00", "Date Release Signed": null, "Longitude": -106.6494169, "Latitude": 35.1237038, "Disposition (from Criminal Dockets)": "Felony case closure" }, "geometry": { "type": "Point", "coordinates": [ -106.6494169, 35.1237038 ] } },
{ "type": "Feature", "properties": { "Name": "John C Silva - Mortgage", "Document No.": 2002067117.0, "Bonding Company": "Pacheco Bonding,A Bail Bond Co.,Aardvark Bail Bond", "Amount": "$55,198 ", "Signing Date": "2002-05-20T00:00:00", "Date Release Signed": null, "Longitude": -106.6497048, "Latitude": 35.1242378, "Disposition (from Criminal Dockets)": null }, "geometry": { "type": "Point", "coordinates": [ -106.6497048, 35.1242378 ] } },
{ "type": "Feature", "properties": { "Name": "Leon Marler - Mortgage", "Document No.": 2002081595.0, "Bonding Company": "Tony Madrid Bail Bonds", "Amount": "$10,000 ", "Signing Date": "2002-06-18T00:00:00", "Date Release Signed": null, "Longitude": -106.5303614, "Latitude": 35.1393414, "Disposition (from Criminal Dockets)": null }, "geometry": { "type": "Point", "coordinates": [ -106.5303614, 35.1393414 ] } },
{ "type": "Feature", "properties": { "Name": "Alfred M Gaylord - Mortgage", "Document No.": 2002088158.0, "Bonding Company": "Pacheco Bonding,A Bail Bond Co.,Aardvark Bail Bond", "Amount": "$105,600 ", "Signing Date": "2002-07-03T00:00:00", "Date Release Signed": "2/13/04", "Longitude": -106.6642934, "Latitude": 35.0098952, "Disposition (from Criminal Dockets)": "Guilty Plea/No Contest" }, "geometry": { "type": "Point", "coordinates": [ -106.6642934, 35.0098952 ] } },
{ "type": "Feature", "properties": { "Name": "Paul A Martinez - Mortgage", "Document No.": 2002088587.0, "Bonding Company": "Pacheco Bonding,A Bail Bond Co.,Aardvark Bail Bond", "Amount": "$8,000 ", "Signing Date": "2002-07-11T00:00:00", "Date Release Signed": "5/27/05", "Longitude": -106.8650395, "Latitude": 35.1128064, "Disposition (from Criminal Dockets)": null }, "geometry": { "type": "Point", "coordinates": [ -106.8650395, 35.1128064 ] } },
{ "type": "Feature", "properties": { "Name": "Nestor T Trujeque - Mortgage", "Document No.": 2002091114.0, "Bonding Company": "Pacheco Bonding,A Bail Bond Co.,Aardvark Bail Bond", "Amount": "$140,500 ", "Signing Date": "2002-07-15T00:00:00", "Date Release Signed": "3/17/03", "Longitude": -106.558292, "Latitude": 35.1341095, "Disposition (from Criminal Dockets)": "Dismissed by Prosecutor" }, "geometry": { "type": "Point", "coordinates": [ -106.558292, 35.1341095 ] } },
{ "type": "Feature", "properties": { "Name": "Julia Holguin - Mortgage", "Document No.": 2002096024.0, "Bonding Company": "Pacheco Bonding,A Bail Bond Co.,Aardvark Bail Bond", "Amount": "$157,500 ", "Signing Date": "2002-07-29T00:00:00", "Date Release Signed": "12/7/05", "Longitude": -106.7099424, "Latitude": 35.0735906, "Disposition (from Criminal Dockets)": null }, "geometry": { "type": "Point", "coordinates": [ -106.7099424, 35.0735906 ] } },
{ "type": "Feature", "properties": { "Name": "Raymond JR Lopez, Ray JR Lopez - Mortgage", "Document No.": 2002105763.0, "Bonding Company": "A Bail Bond Co.,Pacheco Bonding,Aardvark Bail Bond", "Amount": "$27,100 ", "Signing Date": "2002-08-21T00:00:00", "Date Release Signed": "3/16/04", "Longitude": -106.7180045, "Latitude": 35.0757959, "Disposition (from Criminal Dockets)": null }, "geometry": { "type": "Point", "coordinates": [ -106.7180045, 35.0757959 ] } },
{ "type": "Feature", "properties": { "Name": "Carolina Jaramillo - Mortgage", "Document No.": 2002114561.0, "Bonding Company": "Pacheco Bonding,A Bail Bond Co.,Aardvark Bail Bond", "Amount": "$54,000 ", "Signing Date": "2002-08-25T00:00:00", "Date Release Signed": null, "Longitude": -106.554539, "Latitude": 35.0667791, "Disposition (from Criminal Dockets)": "Dismissed by Prosecutor" }, "geometry": { "type": "Point", "coordinates": [ -106.554539, 35.0667791 ] } },
{ "type": "Feature", "properties": { "Name": "Thomas R Griego - Mortgage", "Document No.": 2002114559.0, "Bonding Company": "Pacheco Bonding,A Bail Bond Co.,Aardvark Bail Bond", "Amount": "$5,300 ", "Signing Date": "2002-08-28T00:00:00", "Date Release Signed": null, "Longitude": -106.6468148, "Latitude": 35.0848894, "Disposition (from Criminal Dockets)": null }, "geometry": { "type": "Point", "coordinates": [ -106.6468148, 35.0848894 ] } },
{ "type": "Feature", "properties": { "Name": "Felipa Jurado - Mortgage", "Document No.": 2002114560.0, "Bonding Company": "Pacheco Bonding,A Bail Bond Co.,Aardvark Bail Bond", "Amount": "$20,000 ", "Signing Date": "2002-09-10T00:00:00", "Date Release Signed": "2/13/04", "Longitude": -106.6487612, "Latitude": 35.0947515, "Disposition (from Criminal Dockets)": null }, "geometry": { "type": "Point", "coordinates": [ -106.6487612, 35.0947515 ] } },
{ "type": "Feature", "properties": { "Name": "Jason Burke - Mortgage", "Document No.": 2002126550.0, "Bonding Company": "An Exit Bail Bonds", "Amount": "$20,000 ", "Signing Date": "2002-09-25T00:00:00", "Date Release Signed": null, "Longitude": -106.716323, "Latitude": 35.0925206, "Disposition (from Criminal Dockets)": "Guilty Plea/No Contest" }, "geometry": { "type": "Point", "coordinates": [ -106.716323, 35.0925206 ] } },
{ "type": "Feature", "properties": { "Name": "Leonard M Acosta, Alice Virginia Acosta - Mortgage", "Document No.": 2002138001.0, "Bonding Company": "Pacheco Bonding,A Bail Bond Co.,Aardvark Bail Bond", "Amount": "$32,750 ", "Signing Date": "2002-10-10T00:00:00", "Date Release Signed": null, "Longitude": -106.7127065, "Latitude": 35.0048322, "Disposition (from Criminal Dockets)": "Dismissed by Prosecutor" }, "geometry": { "type": "Point", "coordinates": [ -106.7127065, 35.0048322 ] } },
{ "type": "Feature", "properties": { "Name": "Lucas R Chavez, Lucas Chavez - Mortgage", "Document No.": 2002135306.0, "Bonding Company": "Pacheco Bonding,A Bail Bond Co.,Aardvark Bail Bond", "Amount": "$10,000 ", "Signing Date": "2002-10-16T00:00:00", "Date Release Signed": "5/10/12", "Longitude": -106.7232566, "Latitude": 35.1198058, "Disposition (from Criminal Dockets)": "Felony case closure" }, "geometry": { "type": "Point", "coordinates": [ -106.7232566, 35.1198058 ] } },
{ "type": "Feature", "properties": { "Name": "Sophie Martin - Mortgage", "Document No.": 2002145304.0, "Bonding Company": "Pacheco Bonding,A Bail Bond Co.,Aardvark Bail Bond", "Amount": "$109,500 ", "Signing Date": "2002-11-01T00:00:00", "Date Release Signed": "11/8/2011, 9/27/2011", "Longitude": -106.6107033, "Latitude": 35.157839, "Disposition (from Criminal Dockets)": "Dismissed by Prosecutor" }, "geometry": { "type": "Point", "coordinates": [ -106.6107033, 35.157839 ] } },
{ "type": "Feature", "properties": { "Name": "Victoria Baker - Mortgage", "Document No.": 2002145305.0, "Bonding Company": "Pacheco Bonding,A Bail Bond Co.,Aardvark Bail Bond", "Amount": "$78,800 ", "Signing Date": "2002-11-05T00:00:00", "Date Release Signed": "5/3/04", "Longitude": -106.5297515, "Latitude": 35.0909443, "Disposition (from Criminal Dockets)": "Guilty Plea/No Contest" }, "geometry": { "type": "Point", "coordinates": [ -106.5297515, 35.0909443 ] } },
{ "type": "Feature", "properties": { "Name": "Darrell D Manuelito, Vanessa M Manuelito - Mortgage", "Document No.": 2002156813.0, "Bonding Company": "Pacheco Bonding,A Bail Bond Co.,Aardvark Bail Bond", "Amount": "$27,000 ", "Signing Date": "2002-11-22T00:00:00", "Date Release Signed": "10/13/04", "Longitude": -106.5892421, "Latitude": 35.1168713, "Disposition (from Criminal Dockets)": "Dismissed by Prosecutor" }, "geometry": { "type": "Point", "coordinates": [ -106.5892421, 35.1168713 ] } },
{ "type": "Feature", "properties": { "Name": "Omar Manzianilla, Gracila Raspar - Mortgage", "Document No.": 2003108903.0, "Bonding Company": "Affordable Bail Bonds ", "Amount": "$54,300 ", "Signing Date": "2002-12-20T00:00:00", "Date Release Signed": null, "Longitude": -106.6818425, "Latitude": 35.0211463, "Disposition (from Criminal Dockets)": "Guilty Plea/No Contest" }, "geometry": { "type": "Point", "coordinates": [ -106.6818425, 35.0211463 ] } },
{ "type": "Feature", "properties": { "Name": "Stephanie Volkerding - Mortgage", "Document No.": 2003001196.0, "Bonding Company": "Pacheco Bonding,A Bail Bond Co.,Aardvark Bail Bond", "Amount": "$27,500 ", "Signing Date": "2002-12-24T00:00:00", "Date Release Signed": "3/26/03", "Longitude": -106.7217362, "Latitude": 35.1089081, "Disposition (from Criminal Dockets)": null }, "geometry": { "type": "Point", "coordinates": [ -106.7217362, 35.1089081 ] } },
{ "type": "Feature", "properties": { "Name": "Sandra Naranjo - Mortgage", "Document No.": 2003024740.0, "Bonding Company": "Madrid Ent Inc", "Amount": null, "Signing Date": "2002-12-24T00:00:00", "Date Release Signed": null, "Longitude": -106.6383445, "Latitude": 35.0936661, "Disposition (from Criminal Dockets)": null }, "geometry": { "type": "Point", "coordinates": [ -106.6383445, 35.0936661 ] } },
{ "type": "Feature", "properties": { "Name": "Esther Villejos - Mortgage", "Document No.": 2003005010.0, "Bonding Company": "Affordable Bail Bonds ", "Amount": "$53,000 ", "Signing Date": "2003-01-07T00:00:00", "Date Release Signed": null, "Longitude": -106.6591003, "Latitude": 35.0967766, "Disposition (from Criminal Dockets)": null }, "geometry": { "type": "Point", "coordinates": [ -106.6591003, 35.0967766 ] } },
{ "type": "Feature", "properties": { "Name": "Prudencia Torres - Mortgage", "Document No.": 2003009155.0, "Bonding Company": "Pacheco Bonding,A Bail Bond Co.,Aardvark Bail Bond", "Amount": "$21,500 ", "Signing Date": "2003-01-16T00:00:00", "Date Release Signed": "2/29/04", "Longitude": -106.6998076, "Latitude": 35.0298237, "Disposition (from Criminal Dockets)": null }, "geometry": { "type": "Point", "coordinates": [ -106.6998076, 35.0298237 ] } },
{ "type": "Feature", "properties": { "Name": "Natalia N Luevano - Mortgage", "Document No.": 2003021267.0, "Bonding Company": "Pacheco Bonding,A Bail Bond Co.,Aardvark Bail Bond", "Amount": "$7,500 ", "Signing Date": "2003-01-29T00:00:00", "Date Release Signed": "8/18/05", "Longitude": -106.7271727, "Latitude": 35.0537672, "Disposition (from Criminal Dockets)": null }, "geometry": { "type": "Point", "coordinates": [ -106.7271727, 35.0537672 ] } },
{ "type": "Feature", "properties": { "Name": "Margaret Crespin - Mortgage", "Document No.": 2003021268.0, "Bonding Company": "Pacheco Bonding,A Bail Bond Co.,Aardvark Bail Bond", "Amount": "$21,500 ", "Signing Date": "2003-01-30T00:00:00", "Date Release Signed": "4/15/2005, 4/15/2005", "Longitude": -106.6976886, "Latitude": 35.0837631, "Disposition (from Criminal Dockets)": null }, "geometry": { "type": "Point", "coordinates": [ -106.6976886, 35.0837631 ] } },
{ "type": "Feature", "properties": { "Name": "John M Lopez - Mortgage", "Document No.": 2003033229.0, "Bonding Company": "Quick Bail Bonds", "Amount": null, "Signing Date": "2003-02-14T00:00:00", "Date Release Signed": null, "Longitude": -106.6915619, "Latitude": 35.011662, "Disposition (from Criminal Dockets)": null }, "geometry": { "type": "Point", "coordinates": [ -106.6915619, 35.011662 ] } },
{ "type": "Feature", "properties": { "Name": "Blanca Rodriguez - Mortgage", "Document No.": 2003038154.0, "Bonding Company": "AAA Bail Bonds", "Amount": "$25,000 ", "Signing Date": "2003-03-07T00:00:00", "Date Release Signed": null, "Longitude": -106.6582137, "Latitude": 35.0239278, "Disposition (from Criminal Dockets)": null }, "geometry": { "type": "Point", "coordinates": [ -106.6582137, 35.0239278 ] } },
{ "type": "Feature", "properties": { "Name": "Emelicia Garcia, Emelicia Baca - Mortgage", "Document No.": 2003045083.0, "Bonding Company": "Pacheco Bonding,A Bail Bond Co.,Aardvark Bail Bond", "Amount": "$107,500 ", "Signing Date": "2003-03-18T00:00:00", "Date Release Signed": "7/23/13", "Longitude": -106.7097121, "Latitude": 35.0080155, "Disposition (from Criminal Dockets)": null }, "geometry": { "type": "Point", "coordinates": [ -106.7097121, 35.0080155 ] } },
{ "type": "Feature", "properties": { "Name": "Victorio G Guardiola, James T Guardiola - Mortgage", "Document No.": 2003050450.0, "Bonding Company": "Pacheco Bonding,A Bail Bond Co.,Aardvark Bail Bond", "Amount": "$76,500 ", "Signing Date": "2003-03-18T00:00:00", "Date Release Signed": null, "Longitude": -106.7269423, "Latitude": 35.0707295, "Disposition (from Criminal Dockets)": null }, "geometry": { "type": "Point", "coordinates": [ -106.7269423, 35.0707295 ] } },
{ "type": "Feature", "properties": { "Name": "James M. Lantz - Mortgage", "Document No.": 2003045764.0, "Bonding Company": "Ranger Insurance", "Amount": "$300,000 ", "Signing Date": "2003-03-19T00:00:00", "Date Release Signed": null, "Longitude": null, "Latitude": null, "Disposition (from Criminal Dockets)": "Dismissed by Prosecutor" }, "geometry": null },
{ "type": "Feature", "properties": { "Name": "Mary Cabrera, Catherine R Vargas - Mortgage", "Document No.": 2003055822.0, "Bonding Company": "Affordable Bail Bonds ", "Amount": "$57,000 ", "Signing Date": "2003-04-01T00:00:00", "Date Release Signed": null, "Longitude": -106.6055534, "Latitude": 34.9568026, "Disposition (from Criminal Dockets)": null }, "geometry": { "type": "Point", "coordinates": [ -106.6055534, 34.9568026 ] } },
{ "type": "Feature", "properties": { "Name": "Dennis Griego, Erlinda Griego - Mortgage", "Document No.": 2003061771.0, "Bonding Company": "AAA Bail Bonds", "Amount": "$16,000 ", "Signing Date": "2003-04-14T00:00:00", "Date Release Signed": "2/4/05", "Longitude": -106.5175769, "Latitude": 35.1138209, "Disposition (from Criminal Dockets)": null }, "geometry": { "type": "Point", "coordinates": [ -106.5175769, 35.1138209 ] } },
{ "type": "Feature", "properties": { "Name": "Julia Holguin - Mortgage", "Document No.": 2003070150.0, "Bonding Company": "Pacheco Bonding", "Amount": "$13,250 ", "Signing Date": "2003-04-17T00:00:00", "Date Release Signed": "12/7/05", "Longitude": null, "Latitude": null, "Disposition (from Criminal Dockets)": "Guilty Plea/No Contest" }, "geometry": null },
{ "type": "Feature", "properties": { "Name": "Sulia Holguin - Mortgage", "Document No.": 2003070150.0, "Bonding Company": "Pacheco Bonding,A Bail Bond Co.,Aardvark Bail Bond", "Amount": "$13,250 ", "Signing Date": "2003-04-17T00:00:00", "Date Release Signed": null, "Longitude": -106.7099424, "Latitude": 35.0735906, "Disposition (from Criminal Dockets)": null }, "geometry": { "type": "Point", "coordinates": [ -106.7099424, 35.0735906 ] } },
{ "type": "Feature", "properties": { "Name": "Elizabeth Hernandez - Mortgage", "Document No.": 2003079535.0, "Bonding Company": "Action Bail Bonds", "Amount": "$9,500 ", "Signing Date": "2003-04-19T00:00:00", "Date Release Signed": "3/10/2006, 3/10/2006", "Longitude": null, "Latitude": null, "Disposition (from Criminal Dockets)": null }, "geometry": null },
{ "type": "Feature", "properties": { "Name": "Donald Cagle - Mortgage", "Document No.": 2003067816.0, "Bonding Company": "AAA Bail Bonds", "Amount": "$27,500 ", "Signing Date": "2003-04-24T00:00:00", "Date Release Signed": "10/17/05", "Longitude": -106.7215519, "Latitude": 35.1089759, "Disposition (from Criminal Dockets)": "Guilty Plea/No Contest" }, "geometry": { "type": "Point", "coordinates": [ -106.7215519, 35.1089759 ] } },
{ "type": "Feature", "properties": { "Name": "Gloria Segura - Mortgage", "Document No.": 2003082820.0, "Bonding Company": "AAA Bail Bonds", "Amount": "$50,000 ", "Signing Date": "2003-05-16T00:00:00", "Date Release Signed": "1/30/08", "Longitude": -106.7174517, "Latitude": 35.107341, "Disposition (from Criminal Dockets)": null }, "geometry": { "type": "Point", "coordinates": [ -106.7174517, 35.107341 ] } },
{ "type": "Feature", "properties": { "Name": "Hayden Nancy Kay - Mortgage", "Document No.": 2003093673.0, "Bonding Company": "AAA Bail Bonds", "Amount": "$10,500 ", "Signing Date": "2003-06-02T00:00:00", "Date Release Signed": null, "Longitude": -106.5457245, "Latitude": 35.1466072, "Disposition (from Criminal Dockets)": "Guilty Plea/No Contest" }, "geometry": { "type": "Point", "coordinates": [ -106.5457245, 35.1466072 ] } },
{ "type": "Feature", "properties": { "Name": "Ray Lopez Jr - Mortgage", "Document No.": 2003095792.0, "Bonding Company": "AAA Bail Bonds", "Amount": "$5,400 ", "Signing Date": "2003-06-30T00:00:00", "Date Release Signed": "3/11/04", "Longitude": -106.7180045, "Latitude": 35.0757959, "Disposition (from Criminal Dockets)": null }, "geometry": { "type": "Point", "coordinates": [ -106.7180045, 35.0757959 ] } },
{ "type": "Feature", "properties": { "Name": "Billy G Mclane - Mortgage", "Document No.": 2003119776.0, "Bonding Company": "AAA Bail Bonds", "Amount": "$10,500 ", "Signing Date": "2003-07-09T00:00:00", "Date Release Signed": null, "Longitude": -106.6418179, "Latitude": 35.0778791, "Disposition (from Criminal Dockets)": "Guilty Plea/No Contest" }, "geometry": { "type": "Point", "coordinates": [ -106.6418179, 35.0778791 ] } },
{ "type": "Feature", "properties": { "Name": "Dana Kimmel - Mortgage", "Document No.": 2003124969.0, "Bonding Company": "AAA Bail Bonds", "Amount": "$10,350 ", "Signing Date": "2003-07-16T00:00:00", "Date Release Signed": "4/21/04", "Longitude": -106.5735766, "Latitude": 35.1764639, "Disposition (from Criminal Dockets)": null }, "geometry": { "type": "Point", "coordinates": [ -106.5735766, 35.1764639 ] } },
{ "type": "Feature", "properties": { "Name": "Rachael V Garcia - Mortgage", "Document No.": 2003139933.0, "Bonding Company": "Pacheco Bonding,A Bail Bond Co.,Aardvark Bail Bond", "Amount": "$163,599 ", "Signing Date": "2003-07-29T00:00:00", "Date Release Signed": "7/24/08", "Longitude": -106.6333378, "Latitude": 35.1852741, "Disposition (from Criminal Dockets)": null }, "geometry": { "type": "Point", "coordinates": [ -106.6333378, 35.1852741 ] } },
{ "type": "Feature", "properties": { "Name": "Arturo Galvan - Mortgage", "Document No.": 2003132852.0, "Bonding Company": "AAA Bail Bonds", "Amount": "$21,200 ", "Signing Date": "2003-07-30T00:00:00", "Date Release Signed": "9/13/06", "Longitude": -106.6526408, "Latitude": 35.0196079, "Disposition (from Criminal Dockets)": "Dismissed by Prosecutor" }, "geometry": { "type": "Point", "coordinates": [ -106.6526408, 35.0196079 ] } },
{ "type": "Feature", "properties": { "Name": "Leroy Purcella - Mortgage", "Document No.": 2003154747.0, "Bonding Company": "Pacheco Bonding,A Bail Bond Co.,Aardvark Bail Bond", "Amount": "$108,782 ", "Signing Date": "2003-08-18T00:00:00", "Date Release Signed": null, "Longitude": -106.7272971, "Latitude": 34.9749339, "Disposition (from Criminal Dockets)": "Guilty Plea/No Contest" }, "geometry": { "type": "Point", "coordinates": [ -106.7272971, 34.9749339 ] } },
{ "type": "Feature", "properties": { "Name": "Denise L Contreras - Mortgage", "Document No.": 2003154748.0, "Bonding Company": "Pacheco Bonding,A Bail Bond Co.,Aardvark Bail Bond", "Amount": "$108,782 ", "Signing Date": "2003-08-18T00:00:00", "Date Release Signed": "4/30/07", "Longitude": -106.7384606, "Latitude": 35.1029081, "Disposition (from Criminal Dockets)": null }, "geometry": { "type": "Point", "coordinates": [ -106.7384606, 35.1029081 ] } },
{ "type": "Feature", "properties": { "Name": "Sharon Donahue - Mortgage", "Document No.": 2003152336.0, "Bonding Company": "AAA Bail Bonds", "Amount": "$20,820 ", "Signing Date": "2003-08-23T00:00:00", "Date Release Signed": "7/11/07", "Longitude": -106.6783418, "Latitude": 35.0994054, "Disposition (from Criminal Dockets)": "Guilty Plea/No Contest" }, "geometry": { "type": "Point", "coordinates": [ -106.6783418, 35.0994054 ] } },
{ "type": "Feature", "properties": { "Name": "Robert Alderete Jr. - Mortgage", "Document No.": 2003129586.0, "Bonding Company": "Quick Bail Bonds", "Amount": "$20,820 ", "Signing Date": "2003-08-23T00:00:00", "Date Release Signed": null, "Longitude": -106.6677478, "Latitude": 35.1898671, "Disposition (from Criminal Dockets)": null }, "geometry": { "type": "Point", "coordinates": [ -106.6677478, 35.1898671 ] } },
{ "type": "Feature", "properties": { "Name": "Melissa Padilla - Mortgage", "Document No.": 2003165078.0, "Bonding Company": "AAA Bail Bonds", "Amount": "$5,904 ", "Signing Date": "2003-09-08T00:00:00", "Date Release Signed": "1/30/08", "Longitude": -106.542226, "Latitude": 35.1051323, "Disposition (from Criminal Dockets)": null }, "geometry": { "type": "Point", "coordinates": [ -106.542226, 35.1051323 ] } },
{ "type": "Feature", "properties": { "Name": "Helen Armijo - Mortgage", "Document No.": 2003168221.0, "Bonding Company": "AAA Bail Bonds", "Amount": "$15,750 ", "Signing Date": "2003-09-14T00:00:00", "Date Release Signed": "8/17/2006, 3/15/2006", "Longitude": -106.6915619, "Latitude": 35.0226631, "Disposition (from Criminal Dockets)": "Guilty Plea/No Contest" }, "geometry": { "type": "Point", "coordinates": [ -106.6915619, 35.0226631 ] } },
{ "type": "Feature", "properties": { "Name": "Carl Jelinek - Mortgage", "Document No.": 2003221247.0, "Bonding Company": "Affordable Bail Bonds ", "Amount": "$26,650 ", "Signing Date": "2003-09-22T00:00:00", "Date Release Signed": null, "Longitude": -106.5602255, "Latitude": 35.0838009, "Disposition (from Criminal Dockets)": null }, "geometry": { "type": "Point", "coordinates": [ -106.5602255, 35.0838009 ] } },
{ "type": "Feature", "properties": { "Name": "Alda Najera - Mortgage", "Document No.": 2003177870.0, "Bonding Company": "AAA Bail Bonds", "Amount": "$51,250 ", "Signing Date": "2003-09-26T00:00:00", "Date Release Signed": "5/23/07", "Longitude": -106.6872779, "Latitude": 35.0802575, "Disposition (from Criminal Dockets)": "Guilty Plea/No Contest" }, "geometry": { "type": "Point", "coordinates": [ -106.6872779, 35.0802575 ] } },
{ "type": "Feature", "properties": { "Name": "Corrie Wilkins - Mortgage", "Document No.": 2003221246.0, "Bonding Company": "Affordable Bail Bonds ", "Amount": "$108,000 ", "Signing Date": "2003-10-01T00:00:00", "Date Release Signed": null, "Longitude": -106.7045525, "Latitude": 35.2107579, "Disposition (from Criminal Dockets)": "Dismissed by Prosecutor" }, "geometry": { "type": "Point", "coordinates": [ -106.7045525, 35.2107579 ] } },
{ "type": "Feature", "properties": { "Name": "Rose Ann Gordy - Mortgage", "Document No.": 2003186706.0, "Bonding Company": "Pacheco Bonding,A Bail Bond Co.,Aardvark Bail Bond", "Amount": "$54,600 ", "Signing Date": "2003-10-06T00:00:00", "Date Release Signed": "5/30/06", "Longitude": -106.7412251, "Latitude": 35.0659097, "Disposition (from Criminal Dockets)": "Guilty Plea/No Contest" }, "geometry": { "type": "Point", "coordinates": [ -106.7412251, 35.0659097 ] } },
{ "type": "Feature", "properties": { "Name": "Richard Llewelyn - Mortgage", "Document No.": 2003221250.0, "Bonding Company": "Affordable Bail Bonds ", "Amount": "$15,000 ", "Signing Date": "2003-10-14T00:00:00", "Date Release Signed": "11/9/06", "Longitude": -106.5619749, "Latitude": 35.0696725, "Disposition (from Criminal Dockets)": null }, "geometry": { "type": "Point", "coordinates": [ -106.5619749, 35.0696725 ] } },
{ "type": "Feature", "properties": { "Name": "R A Hamlin, James Pyka - Mortgage", "Document No.": 2003198353.0, "Bonding Company": "AAA Bail Bonds", "Amount": "$2,625 ", "Signing Date": "2003-10-22T00:00:00", "Date Release Signed": null, "Longitude": -106.5822322, "Latitude": 35.0984898, "Disposition (from Criminal Dockets)": "Dismissed by Prosecutor" }, "geometry": { "type": "Point", "coordinates": [ -106.5822322, 35.0984898 ] } },
{ "type": "Feature", "properties": { "Name": "Joseph Lucero - Mortgage", "Document No.": 2004095228.0, "Bonding Company": "Pacheco Bonding,A Bail Bond Co.,Aardvark Bail Bond", "Amount": "$26,800 ", "Signing Date": "2003-10-27T00:00:00", "Date Release Signed": null, "Longitude": -106.7018806, "Latitude": 35.0858882, "Disposition (from Criminal Dockets)": "Guilty Plea/No Contest" }, "geometry": { "type": "Point", "coordinates": [ -106.7018806, 35.0858882 ] } },
{ "type": "Feature", "properties": { "Name": "Annabelle Chavez - Mortgage", "Document No.": 2003221245.0, "Bonding Company": "Affordable Bail Bonds ", "Amount": "$22,000 ", "Signing Date": "2003-11-04T00:00:00", "Date Release Signed": "3/19/20", "Longitude": -106.7132133, "Latitude": 35.0068523, "Disposition (from Criminal Dockets)": "Guilty Plea/No Contest" }, "geometry": { "type": "Point", "coordinates": [ -106.7132133, 35.0068523 ] } },
{ "type": "Feature", "properties": { "Name": "Mary C Roybal, Carmen G Roybal - Mortgage", "Document No.": 2004003253.0, "Bonding Company": "Pacheco Bonding,A Bail Bond Co.,Aardvark Bail Bond", "Amount": "$10,075 ", "Signing Date": "2003-11-07T00:00:00", "Date Release Signed": null, "Longitude": -106.6574768, "Latitude": 35.0741717, "Disposition (from Criminal Dockets)": null }, "geometry": { "type": "Point", "coordinates": [ -106.6574768, 35.0741717 ] } },
{ "type": "Feature", "properties": { "Name": "Juvenal Flores, Olga Flores - Mortgage", "Document No.": 2003155347.0, "Bonding Company": "ABC Bail Bonds", "Amount": "$100,000 ", "Signing Date": "2003-11-08T00:00:00", "Date Release Signed": null, "Longitude": -106.6426929, "Latitude": 35.0661331, "Disposition (from Criminal Dockets)": null }, "geometry": { "type": "Point", "coordinates": [ -106.6426929, 35.0661331 ] } },
{ "type": "Feature", "properties": { "Name": "Edwin A Barela, Irene Barela - Mortgage", "Document No.": 2003221251.0, "Bonding Company": "Affordable Bail Bonds ", "Amount": "$20,000 ", "Signing Date": "2003-11-29T00:00:00", "Date Release Signed": null, "Longitude": -106.7166915, "Latitude": 34.9735389, "Disposition (from Criminal Dockets)": null }, "geometry": { "type": "Point", "coordinates": [ -106.7166915, 34.9735389 ] } },
{ "type": "Feature", "properties": { "Name": "Sernaida Viola Padilla - Mortgage", "Document No.": 2003221588.0, "Bonding Company": "Pacheco Bonding,A Bail Bond Co.,Aardvark Bail Bond", "Amount": "$109,500 ", "Signing Date": "2003-12-09T00:00:00", "Date Release Signed": null, "Longitude": -106.3591531, "Latitude": 35.1018436, "Disposition (from Criminal Dockets)": "Transferred to Other Court" }, "geometry": { "type": "Point", "coordinates": [ -106.3591531, 35.1018436 ] } },
{ "type": "Feature", "properties": { "Name": "John William Duran, John W Duran - Mortgage", "Document No.": 2003224341.0, "Bonding Company": "Pacheco Bonding,A Bail Bond Co.,Aardvark Bail Bond", "Amount": "$27,500 ", "Signing Date": "2003-12-12T00:00:00", "Date Release Signed": "1/28/14", "Longitude": -106.363691, "Latitude": 35.215339, "Disposition (from Criminal Dockets)": "Guilty Plea/No Contest" }, "geometry": { "type": "Point", "coordinates": [ -106.363691, 35.215339 ] } },
{ "type": "Feature", "properties": { "Name": "Joseph L Saenz, Luisa M Saenz - Mortgage", "Document No.": 2003224342.0, "Bonding Company": "Pacheco Bonding,A Bail Bond Co.,Aardvark Bail Bond", "Amount": "$52,000 ", "Signing Date": "2003-12-12T00:00:00", "Date Release Signed": null, "Longitude": -106.626563, "Latitude": 35.1413426, "Disposition (from Criminal Dockets)": null }, "geometry": { "type": "Point", "coordinates": [ -106.626563, 35.1413426 ] } },
{ "type": "Feature", "properties": { "Name": "Hollie I Jackson - Mortgage", "Document No.": 2002167089.0, "Bonding Company": "Pacheco Bonding,A Bail Bond Co.,Aardvark Bail Bond", "Amount": "$30,000 ", "Signing Date": "2003-12-13T00:00:00", "Date Release Signed": "10/23/14", "Longitude": -106.6988172, "Latitude": 34.986353, "Disposition (from Criminal Dockets)": null }, "geometry": { "type": "Point", "coordinates": [ -106.6988172, 34.986353 ] } },
{ "type": "Feature", "properties": { "Name": "Jose Ortiz, Maria Ortiz - Mortgage", "Document No.": 2004017137.0, "Bonding Company": "Pacheco Bonding,A Bail Bond Co.,Aardvark Bail Bond", "Amount": "$52,000 ", "Signing Date": "2003-12-31T00:00:00", "Date Release Signed": null, "Longitude": -106.6468148, "Latitude": 35.0848894, "Disposition (from Criminal Dockets)": "Dismissed by Prosecutor" }, "geometry": { "type": "Point", "coordinates": [ -106.6468148, 35.0848894 ] } },
{ "type": "Feature", "properties": { "Name": "Daphine Harpin - Mortgage", "Document No.": 2004017138.0, "Bonding Company": "Pacheco Bonding,A Bail Bond Co.,Aardvark Bail Bond", "Amount": "$17,735 ", "Signing Date": "2004-01-07T00:00:00", "Date Release Signed": "11/11/04", "Longitude": -106.68, "Latitude": 35.2121814, "Disposition (from Criminal Dockets)": "Guilty Plea/No Contest" }, "geometry": { "type": "Point", "coordinates": [ -106.68, 35.2121814 ] } },
{ "type": "Feature", "properties": { "Name": "Donna Reed - Mortgage", "Document No.": 2004002984.0, "Bonding Company": "AAA Bail Bonds", "Amount": "$30,000 ", "Signing Date": "2004-01-07T00:00:00", "Date Release Signed": "2/22/06", "Longitude": -106.5178761, "Latitude": 35.0989993, "Disposition (from Criminal Dockets)": "Dismissed by Prosecutor" }, "geometry": { "type": "Point", "coordinates": [ -106.5178761, 35.0989993 ] } },
{ "type": "Feature", "properties": { "Name": "Alberto Torres - Mortgage", "Document No.": 2004017140.0, "Bonding Company": "Pacheco Bonding,A Bail Bond Co.,Aardvark Bail Bond", "Amount": "$54,000 ", "Signing Date": "2004-01-09T00:00:00", "Date Release Signed": "11/14/2006, 4/17/2006", "Longitude": -106.6701429, "Latitude": 35.0452947, "Disposition (from Criminal Dockets)": "Dismissed by Prosecutor" }, "geometry": { "type": "Point", "coordinates": [ -106.6701429, 35.0452947 ] } },
{ "type": "Feature", "properties": { "Name": "Gregory Griego - Mortgage", "Document No.": 2004017139.0, "Bonding Company": "Pacheco Bonding,A Bail Bond Co.,Aardvark Bail Bond", "Amount": "$25,000 ", "Signing Date": "2004-01-09T00:00:00", "Date Release Signed": "2/9/07", "Longitude": -106.7182349, "Latitude": 35.0536501, "Disposition (from Criminal Dockets)": null }, "geometry": { "type": "Point", "coordinates": [ -106.7182349, 35.0536501 ] } },
{ "type": "Feature", "properties": { "Name": "Bertha Gurule - Mortgage", "Document No.": 2004005354.0, "Bonding Company": "AAA Bail Bonds", "Amount": "$30,000 ", "Signing Date": "2004-01-10T00:00:00", "Date Release Signed": "9/13/06", "Longitude": -106.7060266, "Latitude": 35.0537012, "Disposition (from Criminal Dockets)": "Guilty Plea/No Contest" }, "geometry": { "type": "Point", "coordinates": [ -106.7060266, 35.0537012 ] } },
{ "type": "Feature", "properties": { "Name": "Yepez Rosa, Modesto Gallegos - Mortgage", "Document No.": 2006083237.0, "Bonding Company": "Pacheco Bonding,ASAP Bail Bond,A Bail Bond Co.", "Amount": "$189,000 ", "Signing Date": "2004-01-11T00:00:00", "Date Release Signed": "2/9/07", "Longitude": -106.6440285, "Latitude": 35.0683286, "Disposition (from Criminal Dockets)": "Dismissed by Prosecutor" }, "geometry": { "type": "Point", "coordinates": [ -106.6440285, 35.0683286 ] } },
{ "type": "Feature", "properties": { "Name": "Lita Cruz - Mortgage", "Document No.": 2004012125.0, "Bonding Company": "Bankers Ins Co", "Amount": "$83,000 ", "Signing Date": "2004-01-17T00:00:00", "Date Release Signed": "1/20/06", "Longitude": null, "Latitude": null, "Disposition (from Criminal Dockets)": null }, "geometry": null },
{ "type": "Feature", "properties": { "Name": "Bonnie Pace, Martin Beale - Mortgage", "Document No.": 2004009000.0, "Bonding Company": "Martinez Bail Bonds", "Amount": "$88,000 ", "Signing Date": "2004-01-21T00:00:00", "Date Release Signed": "5/25/04", "Longitude": -106.5213282, "Latitude": 35.0741787, "Disposition (from Criminal Dockets)": null }, "geometry": { "type": "Point", "coordinates": [ -106.5213282, 35.0741787 ] } },
{ "type": "Feature", "properties": { "Name": "Lucy Kowalchuk - Mortgage", "Document No.": 2004034002.0, "Bonding Company": "Pacheco Bonding,A Bail Bond Co.,Aardvark Bail Bond", "Amount": "$32,000 ", "Signing Date": "2004-02-15T00:00:00", "Date Release Signed": "6/17/19", "Longitude": -106.7095739, "Latitude": 35.1292169, "Disposition (from Criminal Dockets)": "Guilty Plea/No Contest" }, "geometry": { "type": "Point", "coordinates": [ -106.7095739, 35.1292169 ] } },
{ "type": "Feature", "properties": { "Name": "Eileen Kean - Mortgage", "Document No.": 2004020759.0, "Bonding Company": "AAA Bail Bonds", "Amount": "$16,000 ", "Signing Date": "2004-02-18T00:00:00", "Date Release Signed": "5/1/09", "Longitude": -106.7036311, "Latitude": 35.0975098, "Disposition (from Criminal Dockets)": "Guilty Plea/No Contest" }, "geometry": { "type": "Point", "coordinates": [ -106.7036311, 35.0975098 ] } },
{ "type": "Feature", "properties": { "Name": "Dolores Mizhelle Herrera, Dolores Herrera - Mortgage", "Document No.": 2004022523.0, "Bonding Company": "Pacheco Bonding,A Bail Bond Co.,Aardvark Bail Bond", "Amount": "$10,000 ", "Signing Date": "2004-02-18T00:00:00", "Date Release Signed": null, "Longitude": -106.7180045, "Latitude": 35.1259788, "Disposition (from Criminal Dockets)": null }, "geometry": { "type": "Point", "coordinates": [ -106.7180045, 35.1259788 ] } },
{ "type": "Feature", "properties": { "Name": "Donald R. Armijo\nJoyce A. Armijo - Mortgage", "Document No.": 2004034003.0, "Bonding Company": "Bankers Ins Co", "Amount": "$213,500 ", "Signing Date": "2004-03-02T00:00:00", "Date Release Signed": "6/5/06", "Longitude": null, "Latitude": null, "Disposition (from Criminal Dockets)": "Dismissed by Prosecutor" }, "geometry": null },
{ "type": "Feature", "properties": { "Name": "Helen Pena - Mortgage", "Document No.": 2004062131.0, "Bonding Company": "Bankers Ins Co", "Amount": "$213,500 ", "Signing Date": "2004-03-02T00:00:00", "Date Release Signed": "2/5/09", "Longitude": null, "Latitude": null, "Disposition (from Criminal Dockets)": null }, "geometry": null },
{ "type": "Feature", "properties": { "Name": "Mary Helen Pena - Mortgage", "Document No.": 2004034186.0, "Bonding Company": "Bankers Ins Co", "Amount": "$213,500 ", "Signing Date": "2004-03-02T00:00:00", "Date Release Signed": "6/5/06", "Longitude": null, "Latitude": null, "Disposition (from Criminal Dockets)": null }, "geometry": null },
{ "type": "Feature", "properties": { "Name": "Donald R. Armijo, Joyce A. Armijo - Mortgage", "Document No.": 2004062132.0, "Bonding Company": "Bankers Ins Co", "Amount": "$213,500 ", "Signing Date": "2004-03-02T00:00:00", "Date Release Signed": "6/5/06", "Longitude": null, "Latitude": null, "Disposition (from Criminal Dockets)": null }, "geometry": null },
{ "type": "Feature", "properties": { "Name": "David Griego - Mortgage", "Document No.": 2004034465.0, "Bonding Company": "AAA Bail Bonds", "Amount": "$15,600 ", "Signing Date": "2004-03-12T00:00:00", "Date Release Signed": "9/13/06", "Longitude": -106.6115625, "Latitude": 35.204122, "Disposition (from Criminal Dockets)": "Guilty Plea/No Contest" }, "geometry": { "type": "Point", "coordinates": [ -106.6115625, 35.204122 ] } },
{ "type": "Feature", "properties": { "Name": "Sergio Ruiz - Mortgage", "Document No.": 2004033976.0, "Bonding Company": "Affordable Bail Bonds ", "Amount": "$47,000 ", "Signing Date": "2004-03-13T00:00:00", "Date Release Signed": "8/13/14", "Longitude": null, "Latitude": null, "Disposition (from Criminal Dockets)": "Dismissed by Prosecutor" }, "geometry": null },
{ "type": "Feature", "properties": { "Name": "Fred Macias - Mortgage", "Document No.": 2004038394.0, "Bonding Company": "AAA Bail Bonds", "Amount": "$2,000 ", "Signing Date": "2004-03-19T00:00:00", "Date Release Signed": "10/17/05", "Longitude": -106.6520882, "Latitude": 35.0111929, "Disposition (from Criminal Dockets)": null }, "geometry": { "type": "Point", "coordinates": [ -106.6520882, 35.0111929 ] } },
{ "type": "Feature", "properties": { "Name": "Aaron L Graves - Mortgage", "Document No.": 2004049789.0, "Bonding Company": "Pacheco Bonding,A Bail Bond Co.,Aardvark Bail Bond", "Amount": "$43,400 ", "Signing Date": "2004-03-27T00:00:00", "Date Release Signed": null, "Longitude": -106.2932229, "Latitude": 34.9385309, "Disposition (from Criminal Dockets)": "Guilty Plea/No Contest" }, "geometry": { "type": "Point", "coordinates": [ -106.2932229, 34.9385309 ] } },
{ "type": "Feature", "properties": { "Name": "Rosalba Ibarra - Mortgage", "Document No.": 2004049790.0, "Bonding Company": "Pacheco Bonding,ASAP Bail Bond,A Bail Bond Co.", "Amount": "$7,500 ", "Signing Date": "2004-03-30T00:00:00", "Date Release Signed": "12/19/07", "Longitude": -106.644443, "Latitude": 35.1144169, "Disposition (from Criminal Dockets)": null }, "geometry": { "type": "Point", "coordinates": [ -106.644443, 35.1144169 ] } },
{ "type": "Feature", "properties": { "Name": "Michelle Cruz - Mortgage", "Document No.": 2004048000.0, "Bonding Company": "AAA Bail Bonds", "Amount": "$9,500 ", "Signing Date": "2004-04-08T00:00:00", "Date Release Signed": "10/4/05", "Longitude": -106.5572049, "Latitude": 35.0725585, "Disposition (from Criminal Dockets)": "Guilty Plea/No Contest" }, "geometry": { "type": "Point", "coordinates": [ -106.5572049, 35.0725585 ] } },
{ "type": "Feature", "properties": { "Name": "Michael Jenkins - Mortgage", "Document No.": 2004055851.0, "Bonding Company": "AAA Bail Bonds", "Amount": "$10,000 ", "Signing Date": "2004-04-25T00:00:00", "Date Release Signed": "7/26/07", "Longitude": -106.3108543, "Latitude": 35.150799, "Disposition (from Criminal Dockets)": "Deferred" }, "geometry": { "type": "Point", "coordinates": [ -106.3108543, 35.150799 ] } },
{ "type": "Feature", "properties": { "Name": "Anthony A Sais - Mortgage", "Document No.": 2004059686.0, "Bonding Company": "AAA Bail Bonds", "Amount": "$30,000 ", "Signing Date": "2004-05-01T00:00:00", "Date Release Signed": "1/31/08", "Longitude": -106.6720775, "Latitude": 35.0962761, "Disposition (from Criminal Dockets)": "Guilty Plea/No Contest" }, "geometry": { "type": "Point", "coordinates": [ -106.6720775, 35.0962761 ] } },
{ "type": "Feature", "properties": { "Name": "Ivan Cook - Mortgage", "Document No.": 2004059687.0, "Bonding Company": "AAA Bail Bonds", "Amount": "$30,000 ", "Signing Date": "2004-05-01T00:00:00", "Date Release Signed": null, "Longitude": -106.7186495, "Latitude": 35.1254699, "Disposition (from Criminal Dockets)": null }, "geometry": { "type": "Point", "coordinates": [ -106.7186495, 35.1254699 ] } },
{ "type": "Feature", "properties": { "Name": "Ivan Cook - Mortgage", "Document No.": 2004116762.0, "Bonding Company": "AAA Bail Bonds", "Amount": "$30,000 ", "Signing Date": "2004-05-01T00:00:00", "Date Release Signed": "1/30/08", "Longitude": -106.6949707, "Latitude": 35.0702274, "Disposition (from Criminal Dockets)": null }, "geometry": { "type": "Point", "coordinates": [ -106.6949707, 35.0702274 ] } },
{ "type": "Feature", "properties": { "Name": "Angela Khader - Mortgage", "Document No.": 2004060974.0, "Bonding Company": "AAA Bail Bonds", "Amount": "$150,000 ", "Signing Date": "2004-05-04T00:00:00", "Date Release Signed": "7/1/05", "Longitude": -106.5725407, "Latitude": 35.1817672, "Disposition (from Criminal Dockets)": "Dismissed by Prosecutor" }, "geometry": { "type": "Point", "coordinates": [ -106.5725407, 35.1817672 ] } },
{ "type": "Feature", "properties": { "Name": "Khader Angela - Mortgage", "Document No.": 2004099256.0, "Bonding Company": "American Reliable,Gonzales Bail Bonds", "Amount": "$150,000 ", "Signing Date": "2004-05-04T00:00:00", "Date Release Signed": "2/10/09", "Longitude": -106.5725407, "Latitude": 35.1817672, "Disposition (from Criminal Dockets)": null }, "geometry": { "type": "Point", "coordinates": [ -106.5725407, 35.1817672 ] } },
{ "type": "Feature", "properties": { "Name": "Janet L Garcia - Mortgage", "Document No.": 2004063091.0, "Bonding Company": "AAA Bail Bonds", "Amount": "$10,450 ", "Signing Date": "2004-05-06T00:00:00", "Date Release Signed": null, "Longitude": -106.6625892, "Latitude": 35.0642544, "Disposition (from Criminal Dockets)": null }, "geometry": { "type": "Point", "coordinates": [ -106.6625892, 35.0642544 ] } },
{ "type": "Feature", "properties": { "Name": "Eileen Kean - Mortgage", "Document No.": 2004072716.0, "Bonding Company": "AAA Bail Bonds", "Amount": "$32,500 ", "Signing Date": "2004-05-27T00:00:00", "Date Release Signed": "4/24/07", "Longitude": -106.7036311, "Latitude": 35.0975098, "Disposition (from Criminal Dockets)": "Guilty Plea/No Contest" }, "geometry": { "type": "Point", "coordinates": [ -106.7036311, 35.0975098 ] } },
{ "type": "Feature", "properties": { "Name": "Lupe Garcia - Mortgage", "Document No.": 2004076156.0, "Bonding Company": "Seneca Insurance", "Amount": "$100,000 ", "Signing Date": "2004-06-02T00:00:00", "Date Release Signed": "1/30/08", "Longitude": null, "Latitude": null, "Disposition (from Criminal Dockets)": null }, "geometry": null },
{ "type": "Feature", "properties": { "Name": "Robert JR Rojo - Mortgage", "Document No.": 2004106734.0, "Bonding Company": "Pacheco Bonding,A Bail Bond Co.,Aardvark Bail Bond", "Amount": "$44,000 ", "Signing Date": "2004-06-10T00:00:00", "Date Release Signed": null, "Longitude": -106.5308562, "Latitude": 35.0991947, "Disposition (from Criminal Dockets)": "Transferred to Other Court" }, "geometry": { "type": "Point", "coordinates": [ -106.5308562, 35.0991947 ] } },
{ "type": "Feature", "properties": { "Name": "Eugene Ingram Jr.  - Mortgage", "Document No.": 2004085889.0, "Bonding Company": "AAA Bail Bonds", "Amount": "$25,200 ", "Signing Date": "2004-06-18T00:00:00", "Date Release Signed": "9/7/05", "Longitude": -106.5739449, "Latitude": 35.0661159, "Disposition (from Criminal Dockets)": "Dismissed by Prosecutor" }, "geometry": { "type": "Point", "coordinates": [ -106.5739449, 35.0661159 ] } },
{ "type": "Feature", "properties": { "Name": "Nadia L Luna - Mortgage", "Document No.": 2004092591.0, "Bonding Company": "AAA Bail Bonds", "Amount": "$52,500 ", "Signing Date": "2004-06-28T00:00:00", "Date Release Signed": "1/7/09", "Longitude": -106.470608, "Latitude": 35.055116, "Disposition (from Criminal Dockets)": null }, "geometry": { "type": "Point", "coordinates": [ -106.470608, 35.055116 ] } },
{ "type": "Feature", "properties": { "Name": "Karen Trujillo - Mortgage", "Document No.": 2004097557.0, "Bonding Company": "AAA Bail Bonds", "Amount": "$14,000 ", "Signing Date": "2004-07-12T00:00:00", "Date Release Signed": null, "Longitude": -106.5527677, "Latitude": 35.0830874, "Disposition (from Criminal Dockets)": "Dismissed (Sanction)" }, "geometry": { "type": "Point", "coordinates": [ -106.5527677, 35.0830874 ] } },
{ "type": "Feature", "properties": { "Name": "Lupe Chacon - Mortgage", "Document No.": 2004097556.0, "Bonding Company": "AAA Bail Bonds", "Amount": "$26,800 ", "Signing Date": "2004-07-13T00:00:00", "Date Release Signed": "3/29/05", "Longitude": -106.7070862, "Latitude": 35.0948908, "Disposition (from Criminal Dockets)": "Guilty Plea/No Contest" }, "geometry": { "type": "Point", "coordinates": [ -106.7070862, 35.0948908 ] } },
{ "type": "Feature", "properties": { "Name": "Marie Chavez, Reyes Tijenina, Reyes III Tijenina - Mortgage", "Document No.": 2004152027.0, "Bonding Company": "Pacheco Bonding,A Bail Bond Co.,Aardvark Bail Bond", "Amount": "$108,000 ", "Signing Date": "2004-07-14T00:00:00", "Date Release Signed": "4/30/07", "Longitude": -106.5315582, "Latitude": 35.1030582, "Disposition (from Criminal Dockets)": "Guilty Plea/No Contest" }, "geometry": { "type": "Point", "coordinates": [ -106.5315582, 35.1030582 ] } },
{ "type": "Feature", "properties": { "Name": "James L Ruiz, James Ruiz - Mortgage", "Document No.": 2004106735.0, "Bonding Company": "Pacheco Bonding,A Bail Bond Co.,Aardvark Bail Bond", "Amount": "$54,000 ", "Signing Date": "2004-07-19T00:00:00", "Date Release Signed": null, "Longitude": -106.6481274, "Latitude": 35.0674596, "Disposition (from Criminal Dockets)": null }, "geometry": { "type": "Point", "coordinates": [ -106.6481274, 35.0674596 ] } },
{ "type": "Feature", "properties": { "Name": "Ana Dominguez - Mortgage", "Document No.": 2004103244.0, "Bonding Company": "AAA Bail Bonds", "Amount": "$24,000 ", "Signing Date": "2004-07-22T00:00:00", "Date Release Signed": "4/15/05", "Longitude": -106.6653528, "Latitude": 35.0554612, "Disposition (from Criminal Dockets)": null }, "geometry": { "type": "Point", "coordinates": [ -106.6653528, 35.0554612 ] } },
{ "type": "Feature", "properties": { "Name": "Anthony Trujillo, Connie Guinn - Mortgage", "Document No.": 2004126545.0, "Bonding Company": "Pacheco Bonding,ASAP Bail Bond,A Bail Bond Co.", "Amount": "$52,500 ", "Signing Date": "2004-07-26T00:00:00", "Date Release Signed": "10/23/15", "Longitude": -106.6502805, "Latitude": 35.1081317, "Disposition (from Criminal Dockets)": null }, "geometry": { "type": "Point", "coordinates": [ -106.6502805, 35.1081317 ] } },
{ "type": "Feature", "properties": { "Name": "Saundra H Devlin - Mortgage", "Document No.": 2004146550.0, "Bonding Company": "Affordable Bail Bonds ", "Amount": "$110,000 ", "Signing Date": "2004-07-29T00:00:00", "Date Release Signed": null, "Longitude": -106.6332059, "Latitude": 35.197989, "Disposition (from Criminal Dockets)": "Guilty Plea/No Contest" }, "geometry": { "type": "Point", "coordinates": [ -106.6332059, 35.197989 ] } },
{ "type": "Feature", "properties": { "Name": "Eppie Montano Zamora - Mortgage", "Document No.": 2004113746.0, "Bonding Company": "Affordable Bail Bonds ", "Amount": "$55,000 ", "Signing Date": "2004-08-05T00:00:00", "Date Release Signed": null, "Longitude": -106.6640631, "Latitude": 35.0617892, "Disposition (from Criminal Dockets)": "Guilty Plea/No Contest" }, "geometry": { "type": "Point", "coordinates": [ -106.6640631, 35.0617892 ] } },
{ "type": "Feature", "properties": { "Name": "George R Sanchez - Mortgage", "Document No.": 2004062133.0, "Bonding Company": "Pacheco Bonding,A Bail Bond Co.,Aardvark Bail Bond", "Amount": "$54,500 ", "Signing Date": "2004-08-12T00:00:00", "Date Release Signed": "10/3/05", "Longitude": -106.2294474, "Latitude": 34.9267469, "Disposition (from Criminal Dockets)": "Deferred" }, "geometry": { "type": "Point", "coordinates": [ -106.2294474, 34.9267469 ] } },
{ "type": "Feature", "properties": { "Name": "Jesusita Martinez - Mortgage", "Document No.": 2004127709.0, "Bonding Company": "ASAP Bail Bond,A Bail Bond Co.,Pacheco Bonding", "Amount": "$2,000 ", "Signing Date": "2004-08-20T00:00:00", "Date Release Signed": null, "Longitude": -106.6952932, "Latitude": 35.2105224, "Disposition (from Criminal Dockets)": null }, "geometry": { "type": "Point", "coordinates": [ -106.6952932, 35.2105224 ] } },
{ "type": "Feature", "properties": { "Name": "Ruth Maldonado, Jose E Rodriquez - Mortgage", "Document No.": 2004127711.0, "Bonding Company": "ASAP Bail Bond,A Bail Bond Co.,Pacheco Bonding", "Amount": "$43,300 ", "Signing Date": "2004-08-20T00:00:00", "Date Release Signed": "10/20/06", "Longitude": -106.7429298, "Latitude": 35.0644564, "Disposition (from Criminal Dockets)": null }, "geometry": { "type": "Point", "coordinates": [ -106.7429298, 35.0644564 ] } },
{ "type": "Feature", "properties": { "Name": "Rafael Molina, Rafael SR Molina, Aurora Molina - Mortgage", "Document No.": 2004126546.0, "Bonding Company": "Pacheco Bonding,ASAP Bail Bond,A Bail Bond Co.", "Amount": "$113,160 ", "Signing Date": "2004-08-21T00:00:00", "Date Release Signed": null, "Longitude": -106.6019848, "Latitude": 35.1013226, "Disposition (from Criminal Dockets)": null }, "geometry": { "type": "Point", "coordinates": [ -106.6019848, 35.1013226 ] } },
{ "type": "Feature", "properties": { "Name": "Maria J Molina, Rafael Molina - Mortgage", "Document No.": 2004126547.0, "Bonding Company": "Pacheco Bonding,ASAP Bail Bond,A Bail Bond Co.", "Amount": "$114,160 ", "Signing Date": "2004-08-21T00:00:00", "Date Release Signed": "9/23/04", "Longitude": -106.7051053, "Latitude": 35.0895705, "Disposition (from Criminal Dockets)": null }, "geometry": { "type": "Point", "coordinates": [ -106.7051053, 35.0895705 ] } },
{ "type": "Feature", "properties": { "Name": "Rafael Molina, Maria I Molina - Mortgage", "Document No.": 2004144088.0, "Bonding Company": "Pacheco Bonding,ASAP Bail Bond,A Bail Bond Co.", "Amount": "$114,160 ", "Signing Date": "2004-08-21T00:00:00", "Date Release Signed": "6/22/06", "Longitude": -106.7051053, "Latitude": 35.0895705, "Disposition (from Criminal Dockets)": null }, "geometry": { "type": "Point", "coordinates": [ -106.7051053, 35.0895705 ] } },
{ "type": "Feature", "properties": { "Name": "Joseph Repichowski - Mortgage", "Document No.": 2004126191.0, "Bonding Company": "AAA Bail Bonds", "Amount": "$10,000 ", "Signing Date": "2004-08-28T00:00:00", "Date Release Signed": "9/13/06", "Longitude": -106.5157588, "Latitude": 35.1458625, "Disposition (from Criminal Dockets)": "Dismissed by Judge" }, "geometry": { "type": "Point", "coordinates": [ -106.5157588, 35.1458625 ] } },
{ "type": "Feature", "properties": { "Name": "Mary Norero - Mortgage", "Document No.": 2004127710.0, "Bonding Company": "ASAP Bail Bond,A Bail Bond Co.,Pacheco Bonding", "Amount": "$19,100 ", "Signing Date": "2004-09-01T00:00:00", "Date Release Signed": null, "Longitude": -106.7032165, "Latitude": 35.0893356, "Disposition (from Criminal Dockets)": null }, "geometry": { "type": "Point", "coordinates": [ -106.7032165, 35.0893356 ] } },
{ "type": "Feature", "properties": { "Name": "Marcella Santana - Mortgage", "Document No.": 2004126548.0, "Bonding Company": "Pacheco Bonding,ASAP Bail Bond,A Bail Bond Co.", "Amount": "$12,800 ", "Signing Date": "2004-09-01T00:00:00", "Date Release Signed": "8/2/05", "Longitude": -106.6725381, "Latitude": 35.0466302, "Disposition (from Criminal Dockets)": "Jury Conviction" }, "geometry": { "type": "Point", "coordinates": [ -106.6725381, 35.0466302 ] } },
{ "type": "Feature", "properties": { "Name": "Juana Estopellan - Mortgage", "Document No.": 2004136623.0, "Bonding Company": "AAA Bail Bonds", "Amount": "$28,800 ", "Signing Date": "2004-09-22T00:00:00", "Date Release Signed": null, "Longitude": -106.6426827, "Latitude": 35.1133355, "Disposition (from Criminal Dockets)": "Guilty Plea/No Contest" }, "geometry": { "type": "Point", "coordinates": [ -106.6426827, 35.1133355 ] } },
{ "type": "Feature", "properties": { "Name": "Frank Aragon - Mortgage", "Document No.": 2004136624.0, "Bonding Company": "Aardvark Bail Bond", "Amount": "$41,110 ", "Signing Date": "2004-09-26T00:00:00", "Date Release Signed": "2/1/08", "Longitude": -106.6788945, "Latitude": 35.1078941, "Disposition (from Criminal Dockets)": null }, "geometry": { "type": "Point", "coordinates": [ -106.6788945, 35.1078941 ] } },
{ "type": "Feature", "properties": { "Name": "Leo Chavez - Mortgage", "Document No.": 2004141051.0, "Bonding Company": "AAA Bail Bonds", "Amount": "$23,000 ", "Signing Date": "2004-09-30T00:00:00", "Date Release Signed": "10/19/05", "Longitude": -106.6527048, "Latitude": 35.1190453, "Disposition (from Criminal Dockets)": null }, "geometry": { "type": "Point", "coordinates": [ -106.6527048, 35.1190453 ] } },
{ "type": "Feature", "properties": { "Name": "Ezequiel Chavez Villa, Cindy Chavez Villa - Mortgage", "Document No.": 2004149095.0, "Bonding Company": "AAA Bail Bonds", "Amount": "$15,000 ", "Signing Date": "2004-10-02T00:00:00", "Date Release Signed": "10/17/05", "Longitude": -106.6846984, "Latitude": 35.0456701, "Disposition (from Criminal Dockets)": "Guilty Plea/No Contest" }, "geometry": { "type": "Point", "coordinates": [ -106.6846984, 35.0456701 ] } },
{ "type": "Feature", "properties": { "Name": "Dora Rizor - Mortgage", "Document No.": 2004146551.0, "Bonding Company": "Affordable Bail Bonds ", "Amount": "$109,000 ", "Signing Date": "2004-10-17T00:00:00", "Date Release Signed": null, "Longitude": -106.7026061, "Latitude": 34.8314792, "Disposition (from Criminal Dockets)": "Dismissed by Prosecutor" }, "geometry": { "type": "Point", "coordinates": [ -106.7026061, 34.8314792 ] } },
{ "type": "Feature", "properties": { "Name": "Jose Luis Jaramillo - Mortgage", "Document No.": 2005003304.0, "Bonding Company": "Pacheco Bonding,ASAP Bail Bond,A Bail Bond Co.", "Amount": "$5,000 ", "Signing Date": "2004-10-25T00:00:00", "Date Release Signed": null, "Longitude": -106.6670569, "Latitude": 35.0704821, "Disposition (from Criminal Dockets)": null }, "geometry": { "type": "Point", "coordinates": [ -106.6670569, 35.0704821 ] } },
{ "type": "Feature", "properties": { "Name": "Placida Roybal - Mortgage", "Document No.": 2005003301.0, "Bonding Company": "Pacheco Bonding,ASAP Bail Bond,A Bail Bond Co.", "Amount": "$52,500 ", "Signing Date": "2004-10-29T00:00:00", "Date Release Signed": "2/28/06", "Longitude": -106.7061154, "Latitude": 35.092663, "Disposition (from Criminal Dockets)": "Dismissed by Prosecutor" }, "geometry": { "type": "Point", "coordinates": [ -106.7061154, 35.092663 ] } },
{ "type": "Feature", "properties": { "Name": "Paul D Marquez - Mortgage", "Document No.": 2004158612.0, "Bonding Company": "Affordable Bail Bonds ", "Amount": "$152,500 ", "Signing Date": "2004-11-02T00:00:00", "Date Release Signed": null, "Longitude": -106.6679781, "Latitude": 35.0059043, "Disposition (from Criminal Dockets)": null }, "geometry": { "type": "Point", "coordinates": [ -106.6679781, 35.0059043 ] } },
{ "type": "Feature", "properties": { "Name": "Sophie Lucero - Mortgage", "Document No.": 2004156977.0, "Bonding Company": "AAA Bail Bonds", "Amount": "$20,000 ", "Signing Date": "2004-11-05T00:00:00", "Date Release Signed": "7/17/06", "Longitude": -106.6517658, "Latitude": 35.1147656, "Disposition (from Criminal Dockets)": "Guilty Plea/No Contest" }, "geometry": { "type": "Point", "coordinates": [ -106.6517658, 35.1147656 ] } },
{ "type": "Feature", "properties": { "Name": "Margaret Harrison - Mortgage", "Document No.": 2003204024.0, "Bonding Company": "AAA Bail Bonds", "Amount": "$27,000 ", "Signing Date": "2004-11-07T00:00:00", "Date Release Signed": "5/23/07", "Longitude": -106.5679367, "Latitude": 35.0678137, "Disposition (from Criminal Dockets)": "Cond. Discharge 31-20-13" }, "geometry": { "type": "Point", "coordinates": [ -106.5679367, 35.0678137 ] } },
{ "type": "Feature", "properties": { "Name": "Michael Wallace - Mortgage", "Document No.": 2004158338.0, "Bonding Company": "AAA Bail Bonds", "Amount": "$60,000 ", "Signing Date": "2004-11-10T00:00:00", "Date Release Signed": "4/28/09", "Longitude": -106.5075432, "Latitude": 35.1110396, "Disposition (from Criminal Dockets)": null }, "geometry": { "type": "Point", "coordinates": [ -106.5075432, 35.1110396 ] } },
{ "type": "Feature", "properties": { "Name": "Javier Solis - Mortgage", "Document No.": 2004159673.0, "Bonding Company": "AAA Bail Bonds", "Amount": "$1,000 ", "Signing Date": "2004-11-16T00:00:00", "Date Release Signed": "1/9/09", "Longitude": null, "Latitude": null, "Disposition (from Criminal Dockets)": null }, "geometry": null },
{ "type": "Feature", "properties": { "Name": "Jesus Dominguez - Mortgage", "Document No.": 2005011580.0, "Bonding Company": "AAA Bail Bonds", "Amount": "$3,000 ", "Signing Date": "2004-11-21T00:00:00", "Date Release Signed": "2/28/14", "Longitude": -106.7055245, "Latitude": 35.0452175, "Disposition (from Criminal Dockets)": "Guilty Plea/No Contest" }, "geometry": { "type": "Point", "coordinates": [ -106.7055245, 35.0452175 ] } },
{ "type": "Feature", "properties": { "Name": "Felicitas Covarrubias - Mortgage", "Document No.": 2004162019.0, "Bonding Company": "AAA Bail Bonds", "Amount": "$10,000 ", "Signing Date": "2004-11-22T00:00:00", "Date Release Signed": "9/13/06", "Longitude": -106.7082379, "Latitude": 35.0069267, "Disposition (from Criminal Dockets)": null }, "geometry": { "type": "Point", "coordinates": [ -106.7082379, 35.0069267 ] } },
{ "type": "Feature", "properties": { "Name": "Sandra Naranjo - Mortgage", "Document No.": 2004172053.0, "Bonding Company": "Affordable Bail Bonds ", "Amount": "$109,400 ", "Signing Date": "2004-12-04T00:00:00", "Date Release Signed": "4/26/12", "Longitude": -106.638406, "Latitude": 35.0935351, "Disposition (from Criminal Dockets)": "Guilty Plea/No Contest" }, "geometry": { "type": "Point", "coordinates": [ -106.638406, 35.0935351 ] } },
{ "type": "Feature", "properties": { "Name": "Emilia Carbajal - Mortgage", "Document No.": 2004176286.0, "Bonding Company": "AAA Bail Bonds", "Amount": "$17,000 ", "Signing Date": "2004-12-04T00:00:00", "Date Release Signed": "10/17/05", "Longitude": -106.7447728, "Latitude": 35.06825, "Disposition (from Criminal Dockets)": null }, "geometry": { "type": "Point", "coordinates": [ -106.7447728, 35.06825 ] } },
{ "type": "Feature", "properties": { "Name": "Sally Carrillo - Mortgage", "Document No.": 2004176287.0, "Bonding Company": "AAA Bail Bonds", "Amount": "$15,000 ", "Signing Date": "2004-12-15T00:00:00", "Date Release Signed": "10/17/05", "Longitude": -106.6967212, "Latitude": 34.9879664, "Disposition (from Criminal Dockets)": "Guilty Plea/No Contest" }, "geometry": { "type": "Point", "coordinates": [ -106.6967212, 34.9879664 ] } },
{ "type": "Feature", "properties": { "Name": "Mireya Jurado - Mortgage", "Document No.": 2004176288.0, "Bonding Company": "AAA Bail Bonds", "Amount": "$10,000 ", "Signing Date": "2004-12-15T00:00:00", "Date Release Signed": "5/23/07", "Longitude": -106.7360187, "Latitude": 35.047082, "Disposition (from Criminal Dockets)": null }, "geometry": { "type": "Point", "coordinates": [ -106.7360187, 35.047082 ] } },
{ "type": "Feature", "properties": { "Name": "Patrick Gustiff - Mortgage", "Document No.": 2004177258.0, "Bonding Company": "AAA Bail Bonds", "Amount": "$10,690 ", "Signing Date": "2004-12-18T00:00:00", "Date Release Signed": "1/30/08", "Longitude": -106.5935586, "Latitude": 35.1140406, "Disposition (from Criminal Dockets)": null }, "geometry": { "type": "Point", "coordinates": [ -106.5935586, 35.1140406 ] } },
{ "type": "Feature", "properties": { "Name": "Michele Trujillo - Mortgage", "Document No.": 2005001896.0, "Bonding Company": "Empire Bail Bonds", "Amount": "$50,000 ", "Signing Date": "2005-01-05T00:00:00", "Date Release Signed": "8/22/05", "Longitude": null, "Latitude": null, "Disposition (from Criminal Dockets)": null }, "geometry": null },
{ "type": "Feature", "properties": { "Name": "Carlos Castro - Mortgage", "Document No.": 2005009863.0, "Bonding Company": "AAA Bail Bonds", "Amount": "$20,000 ", "Signing Date": "2005-01-18T00:00:00", "Date Release Signed": null, "Longitude": -106.72867, "Latitude": 35.060516, "Disposition (from Criminal Dockets)": null }, "geometry": { "type": "Point", "coordinates": [ -106.72867, 35.060516 ] } },
{ "type": "Feature", "properties": { "Name": "Ruth Patterson - Mortgage", "Document No.": 2005009864.0, "Bonding Company": "AAA Bail Bonds", "Amount": "$10,500 ", "Signing Date": "2005-01-19T00:00:00", "Date Release Signed": "5/26/05", "Longitude": -106.521098, "Latitude": 35.0933647, "Disposition (from Criminal Dockets)": null }, "geometry": { "type": "Point", "coordinates": [ -106.521098, 35.0933647 ] } },
{ "type": "Feature", "properties": { "Name": "Raul Loya, Maria Loya - Mortgage", "Document No.": 2005011579.0, "Bonding Company": "AAA Bail Bonds", "Amount": "$10,000 ", "Signing Date": "2005-01-21T00:00:00", "Date Release Signed": "2/1/08", "Longitude": -106.6452835, "Latitude": 35.0691451, "Disposition (from Criminal Dockets)": null }, "geometry": { "type": "Point", "coordinates": [ -106.6452835, 35.0691451 ] } },
{ "type": "Feature", "properties": { "Name": "Catalina Bustillos - Mortgage", "Document No.": 2005013057.0, "Bonding Company": "AAA Bail Bonds", "Amount": "$20,000 ", "Signing Date": "2005-01-24T00:00:00", "Date Release Signed": "8/19/05", "Longitude": -106.7350972, "Latitude": 35.0457072, "Disposition (from Criminal Dockets)": null }, "geometry": { "type": "Point", "coordinates": [ -106.7350972, 35.0457072 ] } },
{ "type": "Feature", "properties": { "Name": "Nadine R Garcia - Mortgage", "Document No.": 2005011578.0, "Bonding Company": "AAA Bail Bonds", "Amount": "$15,000 ", "Signing Date": "2005-01-24T00:00:00", "Date Release Signed": null, "Longitude": -106.6841278, "Latitude": 35.0530764, "Disposition (from Criminal Dockets)": "Cond. Discharge 31-20-13" }, "geometry": { "type": "Point", "coordinates": [ -106.6841278, 35.0530764 ] } },
{ "type": "Feature", "properties": { "Name": "Dennis Garcia, Nadine Garcia - Mortgage", "Document No.": 2005036833.0, "Bonding Company": "AAA Bail Bonds", "Amount": "$15,000 ", "Signing Date": "2005-01-24T00:00:00", "Date Release Signed": "7/12/07", "Longitude": -106.6733211, "Latitude": 35.051287, "Disposition (from Criminal Dockets)": null }, "geometry": { "type": "Point", "coordinates": [ -106.6733211, 35.051287 ] } },
{ "type": "Feature", "properties": { "Name": "Maria Esquibel - Mortgage", "Document No.": 2005016462.0, "Bonding Company": "AAA Bail Bonds", "Amount": "$40,000 ", "Signing Date": "2005-01-30T00:00:00", "Date Release Signed": "8/10/07", "Longitude": -106.651996, "Latitude": 35.1252628, "Disposition (from Criminal Dockets)": null }, "geometry": { "type": "Point", "coordinates": [ -106.651996, 35.1252628 ] } },
{ "type": "Feature", "properties": { "Name": "Rose Hernandez - Mortgage", "Document No.": 2005025873.0, "Bonding Company": "Pacheco Bonding,ASAP Bail Bond,A Bail Bond Co.", "Amount": "$164,500 ", "Signing Date": "2005-02-02T00:00:00", "Date Release Signed": null, "Longitude": -106.6392964, "Latitude": 35.1007956, "Disposition (from Criminal Dockets)": "Guilty Plea/No Contest" }, "geometry": { "type": "Point", "coordinates": [ -106.6392964, 35.1007956 ] } },
{ "type": "Feature", "properties": { "Name": "Alfredo Montes Trevizo - Mortgage", "Document No.": 2005024920.0, "Bonding Company": "AAA Bail Bonds", "Amount": "$15,000 ", "Signing Date": "2005-02-18T00:00:00", "Date Release Signed": null, "Longitude": -106.6698666, "Latitude": 35.0059733, "Disposition (from Criminal Dockets)": null }, "geometry": { "type": "Point", "coordinates": [ -106.6698666, 35.0059733 ] } },
{ "type": "Feature", "properties": { "Name": "Jose Banuelos - Mortgage", "Document No.": 2005039829.0, "Bonding Company": "Pacheco Bonding,ASAP Bail Bond,A Bail Bond Co.", "Amount": "$10,000 ", "Signing Date": "2005-03-02T00:00:00", "Date Release Signed": null, "Longitude": -106.6229826, "Latitude": 35.0674385, "Disposition (from Criminal Dockets)": null }, "geometry": { "type": "Point", "coordinates": [ -106.6229826, 35.0674385 ] } },
{ "type": "Feature", "properties": { "Name": "Jose L Medina, Maria L Medina - Mortgage", "Document No.": 2005039830.0, "Bonding Company": "Pacheco Bonding,ASAP Bail Bond,A Bail Bond Co.", "Amount": "$37,500 ", "Signing Date": "2005-03-03T00:00:00", "Date Release Signed": null, "Longitude": -106.7454179, "Latitude": 35.0516475, "Disposition (from Criminal Dockets)": null }, "geometry": { "type": "Point", "coordinates": [ -106.7454179, 35.0516475 ] } },
{ "type": "Feature", "properties": { "Name": "Michelle Cruz - Mortgage", "Document No.": 2005034691.0, "Bonding Company": "AAA Bail Bonds", "Amount": "$29,500 ", "Signing Date": "2005-03-06T00:00:00", "Date Release Signed": null, "Longitude": -106.5572049, "Latitude": 35.0725585, "Disposition (from Criminal Dockets)": null }, "geometry": { "type": "Point", "coordinates": [ -106.5572049, 35.0725585 ] } },
{ "type": "Feature", "properties": { "Name": "Debbie Holland, John Holland - Mortgage", "Document No.": 2005036438.0, "Bonding Company": "Pacheco Bonding,ASAP Bail Bond,A Bail Bond Co.", "Amount": "$27,500 ", "Signing Date": "2005-03-13T00:00:00", "Date Release Signed": "8/4/05", "Longitude": -106.611721, "Latitude": 35.200125, "Disposition (from Criminal Dockets)": null }, "geometry": { "type": "Point", "coordinates": [ -106.611721, 35.200125 ] } },
{ "type": "Feature", "properties": { "Name": "Claudia Y Munoz - Mortgage", "Document No.": 2005039086.0, "Bonding Company": "AAA Bail Bonds", "Amount": "$6,000 ", "Signing Date": "2005-03-13T00:00:00", "Date Release Signed": null, "Longitude": -106.6550161, "Latitude": 35.0205671, "Disposition (from Criminal Dockets)": null }, "geometry": { "type": "Point", "coordinates": [ -106.6550161, 35.0205671 ] } },
{ "type": "Feature", "properties": { "Name": "Ignacio Rojo - Mortgage", "Document No.": 2005039083.0, "Bonding Company": "AAA Bail Bonds", "Amount": "$30,000 ", "Signing Date": "2005-03-19T00:00:00", "Date Release Signed": "9/26/07", "Longitude": -106.7354658, "Latitude": 35.0353695, "Disposition (from Criminal Dockets)": "Guilty Plea/No Contest" }, "geometry": { "type": "Point", "coordinates": [ -106.7354658, 35.0353695 ] } },
{ "type": "Feature", "properties": { "Name": "Earl Garcia - Mortgage", "Document No.": 2005039085.0, "Bonding Company": "AAA Bail Bonds", "Amount": "$80,000 ", "Signing Date": "2005-03-21T00:00:00", "Date Release Signed": "9/13/06", "Longitude": -106.6941185, "Latitude": 35.0705775, "Disposition (from Criminal Dockets)": "Deferred" }, "geometry": { "type": "Point", "coordinates": [ -106.6941185, 35.0705775 ] } },
{ "type": "Feature", "properties": { "Name": "Deborah Howard Bounds - Mortgage", "Document No.": 2005039084.0, "Bonding Company": "AAA Bail Bonds", "Amount": "$30,000 ", "Signing Date": "2005-03-21T00:00:00", "Date Release Signed": "1/30/08", "Longitude": -106.7429298, "Latitude": 35.0645817, "Disposition (from Criminal Dockets)": null }, "geometry": { "type": "Point", "coordinates": [ -106.7429298, 35.0645817 ] } },
{ "type": "Feature", "properties": { "Name": "Ramiro Ocampo - Mortgage", "Document No.": 2005043596.0, "Bonding Company": "AAA Bail Bonds", "Amount": "$500 ", "Signing Date": "2005-03-25T00:00:00", "Date Release Signed": "1/30/08", "Longitude": null, "Latitude": null, "Disposition (from Criminal Dockets)": null }, "geometry": null },
{ "type": "Feature", "properties": { "Name": "David JR Zamora, Rita Zamora - Mortgage", "Document No.": 2005047165.0, "Bonding Company": "Pacheco Bonding,ASAP Bail Bond,A Bail Bond Co.", "Amount": "$200,000 ", "Signing Date": "2005-03-28T00:00:00", "Date Release Signed": "11/7/06", "Longitude": -106.6918383, "Latitude": 35.1617505, "Disposition (from Criminal Dockets)": "Guilty Plea/No Contest" }, "geometry": { "type": "Point", "coordinates": [ -106.6918383, 35.1617505 ] } },
{ "type": "Feature", "properties": { "Name": "Nancy S Wilhelm - Mortgage", "Document No.": 2005047166.0, "Bonding Company": "Pacheco Bonding,ASAP Bail Bond,A Bail Bond Co.", "Amount": "$58,500 ", "Signing Date": "2005-03-28T00:00:00", "Date Release Signed": "5/13/11", "Longitude": -106.4922864, "Latitude": 35.0806104, "Disposition (from Criminal Dockets)": null }, "geometry": { "type": "Point", "coordinates": [ -106.4922864, 35.0806104 ] } },
{ "type": "Feature", "properties": { "Name": "Erasmo Quintana - Mortgage", "Document No.": 2005047167.0, "Bonding Company": "Pacheco Bonding,ASAP Bail Bond,A Bail Bond Co.", "Amount": "$65,000 ", "Signing Date": "2005-03-31T00:00:00", "Date Release Signed": "9/26/06", "Longitude": -106.6556806, "Latitude": 35.2160708, "Disposition (from Criminal Dockets)": null }, "geometry": { "type": "Point", "coordinates": [ -106.6556806, 35.2160708 ] } },
{ "type": "Feature", "properties": { "Name": "Lorraine Miera, Joseph R Miera  - Mortgage", "Document No.": 2005100840.0, "Bonding Company": "Pacheco Bonding,ASAP Bail Bond,A Bail Bond Co.", "Amount": "$20,500 ", "Signing Date": "2005-04-04T00:00:00", "Date Release Signed": null, "Longitude": -106.580943, "Latitude": 35.1507852, "Disposition (from Criminal Dockets)": "Guilty Plea/No Contest" }, "geometry": { "type": "Point", "coordinates": [ -106.580943, 35.1507852 ] } },
{ "type": "Feature", "properties": { "Name": "William Dean Brown - Mortgage", "Document No.": 2005049211.0, "Bonding Company": "Pacheco Bonding,ASAP Bail Bond,A Bail Bond Co.", "Amount": "$18,750 ", "Signing Date": "2005-04-08T00:00:00", "Date Release Signed": "8/2/05", "Longitude": -106.5788712, "Latitude": 35.0969957, "Disposition (from Criminal Dockets)": null }, "geometry": { "type": "Point", "coordinates": [ -106.5788712, 35.0969957 ] } },
{ "type": "Feature", "properties": { "Name": "Floyd Holloway - Mortgage", "Document No.": 2005054853.0, "Bonding Company": "AAA Bail Bonds", "Amount": "$26,500 ", "Signing Date": "2005-04-13T00:00:00", "Date Release Signed": "1/30/08", "Longitude": -106.6408968, "Latitude": 35.069396, "Disposition (from Criminal Dockets)": "Guilty Plea/No Contest" }, "geometry": { "type": "Point", "coordinates": [ -106.6408968, 35.069396 ] } },
{ "type": "Feature", "properties": { "Name": "WENDLAND HENRY C  - Mortgage", "Document No.": 2005059313.0, "Bonding Company": "All Pro Bail Bonds", "Amount": "$162,000 ", "Signing Date": "2005-04-14T00:00:00", "Date Release Signed": "8/8/06", "Longitude": -106.5684893, "Latitude": 35.1197472, "Disposition (from Criminal Dockets)": null }, "geometry": { "type": "Point", "coordinates": [ -106.5684893, 35.1197472 ] } },
{ "type": "Feature", "properties": { "Name": "Wilfredo Gonzales  - Mortgage", "Document No.": 2005054852.0, "Bonding Company": "AAA Bail Bonds", "Amount": "$10,000 ", "Signing Date": "2005-04-15T00:00:00", "Date Release Signed": "7/14/05", "Longitude": -106.6484498, "Latitude": 35.0668289, "Disposition (from Criminal Dockets)": null }, "geometry": { "type": "Point", "coordinates": [ -106.6484498, 35.0668289 ] } },
{ "type": "Feature", "properties": { "Name": "SANCHEZ JOSE LUIZ  - Mortgage", "Document No.": 2005056532.0, "Bonding Company": "Affordable Bail Bonds ", "Amount": "$26,500 ", "Signing Date": "2005-04-18T00:00:00", "Date Release Signed": null, "Longitude": -106.5572792, "Latitude": 35.0788186, "Disposition (from Criminal Dockets)": null }, "geometry": { "type": "Point", "coordinates": [ -106.5572792, 35.0788186 ] } },
{ "type": "Feature", "properties": { "Name": "Darlene Muphy - Mortgage", "Document No.": 2005054851.0, "Bonding Company": "AAA Bail Bonds", "Amount": "$53,000 ", "Signing Date": "2005-04-20T00:00:00", "Date Release Signed": null, "Longitude": -106.6340349, "Latitude": 35.0555159, "Disposition (from Criminal Dockets)": "Guilty Plea/No Contest" }, "geometry": { "type": "Point", "coordinates": [ -106.6340349, 35.0555159 ] } },
{ "type": "Feature", "properties": { "Name": "Stephen Goldman - Mortgage", "Document No.": 2005054850.0, "Bonding Company": "AAA Bail Bonds", "Amount": "$15,000 ", "Signing Date": "2005-04-20T00:00:00", "Date Release Signed": "4/24/07", "Longitude": -106.5876191, "Latitude": 35.0675887, "Disposition (from Criminal Dockets)": null }, "geometry": { "type": "Point", "coordinates": [ -106.5876191, 35.0675887 ] } },
{ "type": "Feature", "properties": { "Name": "TORRES HILDA MENDOZA; MENDOZA HILDA   - Mortgage", "Document No.": 2005062236.0, "Bonding Company": "AAA Bail Bonds", "Amount": "$15,000 ", "Signing Date": "2005-05-01T00:00:00", "Date Release Signed": "5/19/05", "Longitude": -106.5968278, "Latitude": 35.1103638, "Disposition (from Criminal Dockets)": null }, "geometry": { "type": "Point", "coordinates": [ -106.5968278, 35.1103638 ] } },
{ "type": "Feature", "properties": { "Name": "PORTA RUTH - Mortgage", "Document No.": 2005062235.0, "Bonding Company": "AAA Bail Bonds", "Amount": "$50,000 ", "Signing Date": "2005-05-03T00:00:00", "Date Release Signed": "7/26/07", "Longitude": -106.6955695, "Latitude": 35.2162424, "Disposition (from Criminal Dockets)": null }, "geometry": { "type": "Point", "coordinates": [ -106.6955695, 35.2162424 ] } },
{ "type": "Feature", "properties": { "Name": "ZUBIA JUANA ESTOPELLAN  - Mortgage", "Document No.": 2005065199.0, "Bonding Company": "AAA Bail Bonds", "Amount": "$10,500 ", "Signing Date": "2005-05-07T00:00:00", "Date Release Signed": "1/11/2007, 1/11/2007", "Longitude": -106.6426827, "Latitude": 35.1133355, "Disposition (from Criminal Dockets)": null }, "geometry": { "type": "Point", "coordinates": [ -106.6426827, 35.1133355 ] } },
{ "type": "Feature", "properties": { "Name": "MURPHY DARLENE  - Mortgage", "Document No.": 2005067174.0, "Bonding Company": "AAA Bail Bonds", "Amount": "$6,300 ", "Signing Date": "2005-05-13T00:00:00", "Date Release Signed": "5/23/07", "Longitude": -106.6340349, "Latitude": 35.0555159, "Disposition (from Criminal Dockets)": "Dismissed" }, "geometry": { "type": "Point", "coordinates": [ -106.6340349, 35.0555159 ] } },
{ "type": "Feature", "properties": { "Name": "VARGAS LOYA GUSTAVO  - Mortgage", "Document No.": 2005067173.0, "Bonding Company": "AAA Bail Bonds", "Amount": "$5,000 ", "Signing Date": "2005-05-14T00:00:00", "Date Release Signed": "11/14/05", "Longitude": -106.7237173, "Latitude": 35.0397055, "Disposition (from Criminal Dockets)": null }, "geometry": { "type": "Point", "coordinates": [ -106.7237173, 35.0397055 ] } },
{ "type": "Feature", "properties": { "Name": "HARRIS JANET S  - Mortgage", "Document No.": 2005071911.0, "Bonding Company": "AAA Bail Bonds", "Amount": "$20,000 ", "Signing Date": "2005-05-20T00:00:00", "Date Release Signed": "1/30/08", "Longitude": -106.6181474, "Latitude": 35.1011444, "Disposition (from Criminal Dockets)": "Deferred" }, "geometry": { "type": "Point", "coordinates": [ -106.6181474, 35.1011444 ] } },
{ "type": "Feature", "properties": { "Name": "MARTINEZ SABINO  - Mortgage", "Document No.": 2005076232.0, "Bonding Company": "AAA Bail Bonds", "Amount": "$30,000 ", "Signing Date": "2005-05-27T00:00:00", "Date Release Signed": "9/13/06", "Longitude": -106.588678, "Latitude": 35.1860404, "Disposition (from Criminal Dockets)": null }, "geometry": { "type": "Point", "coordinates": [ -106.588678, 35.1860404 ] } },
{ "type": "Feature", "properties": { "Name": "ORTEGA LORI L  - Mortgage", "Document No.": 2005080156.0, "Bonding Company": "AAA Bail Bonds", "Amount": "$18,650 ", "Signing Date": "2005-06-04T00:00:00", "Date Release Signed": "9/23/05", "Longitude": -106.7416858, "Latitude": 35.2030401, "Disposition (from Criminal Dockets)": null }, "geometry": { "type": "Point", "coordinates": [ -106.7416858, 35.2030401 ] } },
{ "type": "Feature", "properties": { "Name": "NEWMANN CHEREE  - Mortgage", "Document No.": 2005082293.0, "Bonding Company": "AAA Bail Bonds", "Amount": "$18,000 ", "Signing Date": "2005-06-06T00:00:00", "Date Release Signed": "9/13/06", "Longitude": -106.5305274, "Latitude": 35.0996198, "Disposition (from Criminal Dockets)": null }, "geometry": { "type": "Point", "coordinates": [ -106.5305274, 35.0996198 ] } },
{ "type": "Feature", "properties": { "Name": "GONZALES MELANIE  - Mortgage", "Document No.": 2005084293.0, "Bonding Company": "AAA Bail Bonds", "Amount": "$7,400 ", "Signing Date": "2005-06-11T00:00:00", "Date Release Signed": "7/12/2007, 7/18/2007", "Longitude": -106.748505, "Latitude": 35.0673875, "Disposition (from Criminal Dockets)": "Converted Nolle Prosequi" }, "geometry": { "type": "Point", "coordinates": [ -106.748505, 35.0673875 ] } },
{ "type": "Feature", "properties": { "Name": "MUELA EVERARDO  - Mortgage", "Document No.": 2005110658.0, "Bonding Company": "AAA Bail Bonds", "Amount": "$10,000 ", "Signing Date": "2005-06-16T00:00:00", "Date Release Signed": "8/8/06", "Longitude": -106.7161617, "Latitude": 35.0579981, "Disposition (from Criminal Dockets)": null }, "geometry": { "type": "Point", "coordinates": [ -106.7161617, 35.0579981 ] } },
{ "type": "Feature", "properties": { "Name": "Rose Griffin - Mortgage", "Document No.": 2005147522.0, "Bonding Company": "Pacheco Bonding,ASAP Bail Bond,A Bail Bond Co.", "Amount": "$7,500 ", "Signing Date": "2005-06-20T00:00:00", "Date Release Signed": "5/17/06", "Longitude": -106.5301197, "Latitude": 35.0953671, "Disposition (from Criminal Dockets)": "Guilty Plea/No Contest" }, "geometry": { "type": "Point", "coordinates": [ -106.5301197, 35.0953671 ] } },
{ "type": "Feature", "properties": { "Name": "Nancy Taylor - Mortgage", "Document No.": 2005095736.0, "Bonding Company": "Affordable Bail Bonds ", "Amount": null, "Signing Date": "2005-07-02T00:00:00", "Date Release Signed": "1/6/06", "Longitude": null, "Latitude": null, "Disposition (from Criminal Dockets)": null }, "geometry": null },
{ "type": "Feature", "properties": { "Name": "Ernest Lucero - Mortgage", "Document No.": 2005145310.0, "Bonding Company": "ASAP Bail Bond,A Bail Bond Co.,Pacheco Bonding", "Amount": "$27,000 ", "Signing Date": "2005-07-18T00:00:00", "Date Release Signed": null, "Longitude": -106.5937083, "Latitude": 35.2144887, "Disposition (from Criminal Dockets)": "Guilty Plea/No Contest" }, "geometry": { "type": "Point", "coordinates": [ -106.5937083, 35.2144887 ] } },